"","STOP_ID","STOP_NAME","STOP_ABBR","STREET_NMB","ON_STREET","AT_STREET","CITY","ZIP","BAY","STOP_TYPE","PLACEMENT","CORNER","STATUS","LATITUDE","LONGITUDE","SOURCE","SOURCEDATE","bus_lat_bin","bus_long_bin","bus_grid_cell"
"1",66,"4925 Craigwood/FM 969","CRFMS","004925","CRAIGWOOD","FM 969","AUSTIN",78725,"","Bus Stop","Nearside","Southeast","Active",30.2841709,-97.65985415,"Capital Metro","2017-08-17",3,3,"3-3"
"2",252,"200 Trinity/2nd","2TRS","000200","TRINITY","2ND","AUSTIN",78701,"","Bus Stop","Mid-Block","Northeast","Active",30.2638421,-97.74042677,"Capital Metro","2017-08-17",3,1,"3-1"
"3",462,"851 Rutland/Park Village","S1","000851","RUTLAND","PARK VILLAGE","AUSTIN",78758,"","Bus Stop","Mid-Block","Southeast","Active",30.36547,-97.69752,"Capital Metro","2017-08-17",4,2,"4-2"
"4",466,"8740 Lamar/Payton Gin","S1801","008740","LAMAR","PAYTON GIN","AUSTIN",78758,"","Bus Stop","Mid-Block","Southwest","Active",30.35680916,-97.70106551,"Capital Metro","2017-08-17",3,2,"3-2"
"5",467,"8630 Lamar/Fairfield","S63","008630","LAMAR","FAIRFIELD","AUSTIN",78758,"","Bus Stop","Farside","Southwest","Active",30.35529611,-97.7031279,"Capital Metro","2017-08-17",3,2,"3-2"
"6",468,"Lamar/Thurmond","S15","008400","LAMAR","THURMOND","AUSTIN",78758,"","Bus Stop","Farside","Southwest","Active",30.35313912,-97.70608203,"Capital Metro","2017-08-17",3,2,"3-2"
"7",469,"8320 Lamar/Meadowlark","S62","008320","LAMAR","MEADOWLARK","AUSTIN",78758,"","Bus Stop","Nearside","Northwest","Active",30.3522556,-97.70729488,"Capital Metro","2017-08-17",3,2,"3-2"
"8",471,"7720 Lamar/Stobaugh","S1911","007720","LAMAR","STOBAUGH","AUSTIN",78757,"","Bus Stop","Mid-Block","Southwest","Active",30.34604,-97.71394,"Capital Metro","2017-08-17",3,2,"3-2"
"9",472,"7520 Lamar/Morrow","S11","007520","LAMAR","MORROW","AUSTIN",78757,"","Bus Stop","Mid-Block","Southwest","Active",30.34313363,-97.71565611,"Capital Metro","2017-08-17",3,2,"3-2"
"10",474,"6814 Lamar/Justin","S56","006814","LAMAR","JUSTIN","AUSTIN",78757,"","Bus Stop","Farside","Southwest","Active",30.33620568,-97.72000833,"Capital Metro","2017-08-17",3,2,"3-2"
"11",475,"6600 Lamar/Brentwood","S54","006600","LAMAR","BRENTWOOD","AUSTIN",78757,"","Bus Stop","Nearside","Northwest","Active",30.33411003,-97.72132254,"Capital Metro","2017-08-17",3,2,"3-2"
"12",476,"6200 Lamar/Denson","S7","006200","LAMAR","DENSON","AUSTIN",78757,"","Bus Stop","Nearside","Northwest","Active",30.33042504,-97.72363629,"Capital Metro","2017-08-17",3,2,"3-2"
"13",480,"5528 Lamar/Koenig","S48","005528","LAMAR","KOENIG","AUSTIN",78756,"","Bus Stop","Mid-Block","Southwest","Active",30.32424886,-97.72752964,"Capital Metro","2017-08-17",3,2,"3-2"
"14",482,"5300 Lamar/North Loop","S6","005300","LAMAR","NORTH LOOP","AUSTIN",78756,"","Bus Stop","Nearside","Northwest","Active",30.32130258,-97.72939072,"Capital Metro","2017-08-17",3,2,"3-2"
"15",483,"5106 Lamar/51st","S44","005106","LAMAR","51ST","AUSTIN",78756,"","Bus Stop","Nearside","Northwest","Active",30.31904976,-97.73080613,"Capital Metro","2017-08-17",3,2,"3-2"
"16",484,"Triangle Station (SB)","S1805","004600","GUADALUPE","LAMAR","AUSTIN",78751,"","Rapid Station","Mid-Block","Southwest","Active",30.3146309,-97.73252431,"Capital Metro","2017-08-17",3,2,"3-2"
"17",485,"4500 Guadalupe/45th","200SB","004500","GUADALUPE","45TH","AUSTIN",78751,"","Bus Stop","Nearside","Northwest","Active",30.311163,-97.73295788,"Capital Metro","2017-08-17",3,2,"3-2"
"18",486,"Guadalupe/43rd Street","S39","004300","GUADALUPE","43RD","AUSTIN",78751,"","Bus Stop","Nearside","Northwest","Active",30.30883127,-97.73439524,"Capital Metro","2017-08-17",3,2,"3-2"
"19",487,"Guadalupe/41st Street","S37","004100","GUADALUPE","41ST","AUSTIN",78751,"","Bus Stop","Nearside","Northwest","Active",30.30670338,-97.73575572,"Capital Metro","2017-08-17",3,2,"3-2"
"20",489,"Guadalupe/Maiden","S1806","003500","GUADALUPE","MAIDEN","AUSTIN",78705,"","Bus Stop","Nearside","Northwest","Active",30.30167414,-97.73896028,"Capital Metro","2017-08-17",3,2,"3-2"
"21",490,"Guadalupe/34th Street","S31","003402","GUADALUPE","34TH","AUSTIN",78705,"","Bus Stop","Nearside","Northwest","Active",30.30045562,-97.73970878,"Capital Metro","2017-08-17",3,2,"3-2"
"22",492,"Guadalupe/30th Street","S27","003000","GUADALUPE","30TH","AUSTIN",78705,"","Bus Stop","Nearside","Northwest","Active",30.29680363,-97.74202809,"Capital Metro","2017-08-17",3,1,"3-1"
"23",494,"Guadalupe/27th Street","S14","002700","GUADALUPE","27TH","AUSTIN",78705,"","Bus Stop","Nearside","Northwest","Active",30.29219693,-97.74130995,"Capital Metro","2017-08-17",3,1,"3-1"
"24",495,"Guadalupe/26th Street","S2","002600","GUADALUPE","26TH","AUSTIN",78705,"","Bus Stop","Nearside","Northwest","Active",30.29067306,-97.74140804,"Capital Metro","2017-08-17",3,1,"3-1"
"25",497,"UT West Mall Station (SB)","S19","002246","GUADALUPE","23RD","AUSTIN",78705,"","Rapid Station","Mid-Block","Southwest","Active",30.28606366,-97.74181517,"Capital Metro","2017-08-17",3,1,"3-1"
"26",498,"Guadalupe/W. 21st Street","S17","002026","GUADALUPE","21ST","AUSTIN",78705,"","Bus Stop","Mid-Block","Southwest","Active",30.28338403,-97.74208129,"Capital Metro","2017-08-17",3,1,"3-1"
"27",501,"Guadalupe/16th Street","S292","001600","GUADALUPE","16TH","AUSTIN",78701,"","Bus Stop","Nearside","Northwest","Active",30.27896216,-97.74270752,"Capital Metro","2017-08-17",3,1,"3-1"
"28",506,"11th/Congress","S297","000100","11TH","CONGRESS","AUSTIN",78701,"","Bus Stop","Nearside","Southwest","Active",30.27269988,-97.74137576,"Capital Metro","2017-08-17",3,1,"3-1"
"29",514,"Congress/ 3rd Street","S302","000300","CONGRESS","3RD","AUSTIN",78701,"","Bus Stop","Nearside","Northwest","Active",30.26540423,-97.74395997,"Capital Metro","2017-08-17",3,1,"3-1"
"30",515,"Congress/Cesar Chavez","149SB","000100","CONGRESS","CESAR CHAVEZ","AUSTIN",78701,"","Bus Stop","Nearside","Northwest","Active",30.2635537,-97.74462253,"Capital Metro","2017-08-17",3,1,"3-1"
"31",516,"300 South Congress/Barton Spri","S1809","000300","CONGRESS","BARTON SPRINGS","AUSTIN",78704,"","Bus Stop","Farside","Southwest","Active",30.2586996,-97.74645933,"Capital Metro","2017-08-17",3,1,"3-1"
"32",517,"612 Congress/Riverside","S1810","000612","CONGRESS","RIVERSIDE","AUSTIN",78704,"","Bus Stop","Mid-Block","Southwest","Active",30.25538531,-97.74768538,"Capital Metro","2017-08-17",3,1,"3-1"
"33",522,"2020 Congress/Crockett","S310","002020","CONGRESS","CROCKETT","AUSTIN",78704,"","Bus Stop","Nearside","Northwest","Active",30.24305764,-97.75226256,"Capital Metro","2017-08-17",3,1,"3-1"
"34",524,"2300 Congress/College","S313","002300","CONGRESS","COLLEGE","AUSTIN",78704,"","Bus Stop","Farside","Southwest","Active",30.24033324,-97.75290514,"Capital Metro","2017-08-17",3,1,"3-1"
"35",526,"2622 Congress/Cumberland","S285","002622","CONGRESS","CUMBERLAND","AUSTIN",78704,"","Bus Stop","Nearside","Northwest","Active",30.23569482,-97.75637374,"Capital Metro","2017-08-17",2,1,"2-1"
"36",527,"2918 Congress/La Vista","S318","002918","CONGRESS","LA VISTA","AUSTIN",78704,"","Bus Stop","Nearside","Northwest","Active",30.23259,-97.75853,"Capital Metro","2017-08-17",2,1,"2-1"
"37",528,"3216 Congress/Frederick","S320","003216","CONGRESS","FREDERICK","AUSTIN",78704,"","Bus Stop","Nearside","Northwest","Active",30.23044988,-97.7598699,"Capital Metro","2017-08-17",2,1,"2-1"
"38",529,"Congress/Pickle","S1813","003630","CONGRESS","PICKLE","AUSTIN",78704,"","Bus Stop","Farside","Southwest","Active",30.22689556,-97.76193455,"Capital Metro","2017-08-17",2,1,"2-1"
"39",531,"4210 Congress/Radam","S321","004210","CONGRESS","RADAM","AUSTIN",78745,"","Bus Stop","Mid-Block","Southwest","Active",30.22076229,-97.76541218,"Capital Metro","2017-08-17",2,1,"2-1"
"40",532,"4354 Congress/St Elmo","S289","004354","CONGRESS","ST ELMO","AUSTIN",78745,"","Bus Stop","Nearside","Northwest","Active",30.21843669,-97.76688494,"Capital Metro","2017-08-17",2,1,"2-1"
"41",543,"4722 Congress/Sheraton","S1821","004722","CONGRESS","SHERATON","AUSTIN",78745,"","Bus Stop","Mid-Block","Southwest","Active",30.21474847,-97.76923202,"Capital Metro","2017-08-17",2,1,"2-1"
"42",545,"5300 Congress/Ramble","S327","005300","CONGRESS","RAMBLE","AUSTIN",78745,"","Bus Stop","Farside","Southwest","Active",30.20868505,-97.77310811,"Capital Metro","2017-08-17",2,1,"2-1"
"43",546,"5606 Congress/Sandra","S329","005606","CONGRESS","SANDRA","AUSTIN",78745,"","Bus Stop","Nearside","Northwest","Active",30.20426326,-97.77514131,"Capital Metro","2017-08-17",2,1,"2-1"
"44",548,"6220 Congress/North Bluff","S1822","006220","CONGRESS","NORTH BLUFF","AUSTIN",78745,"","Bus Stop","Nearside","Northwest","Active",30.19904087,-97.77659452,"Capital Metro","2017-08-17",2,1,"2-1"
"45",550,"115 William Cannon/Circle S","S1823","000115","WILLIAM CANNON","CIRCLE S","AUSTIN",78745,"","Bus Stop","Nearside","Southwest","Active",30.19266283,-97.77784114,"Capital Metro","2017-08-17",2,1,"2-1"
"46",551,"409 William Cannon/Circle S","S1824","000409","WILLIAM CANNON","CIRCLE S","AUSTIN",78745,"","Bus Stop","Mid-Block","Southeast","Active",30.19208226,-97.77603682,"Capital Metro","2017-08-17",2,1,"2-1"
"47",552,"601 William Cannon/Circle S","S332","000601","WILLIAM CANNON","CIRCLE S","AUSTIN",78745,"","Bus Stop","Mid-Block","Southeast","Active",30.19138657,-97.77352978,"Capital Metro","2017-08-17",2,1,"2-1"
"48",553,"Nelms/Bluff Springs","S1825","001600","NELMS","BLUFF SPRINGS","AUSTIN",78744,"","Bus Stop","Nearside","Southwest","Active",30.19273904,-97.7653293,"Capital Metro","2017-08-17",2,1,"2-1"
"49",554,"Bluff Springs/William Cannon","426","006600","BLUFF SPRINGS","WILLIAM CANNON","AUSTIN",78744,"SOUTH","Bus Stop","Nearside","Northwest","Active",30.18942686,-97.76787859,"Capital Metro","2017-08-17",2,1,"2-1"
"50",555,"412 William Cannon/North Bluff","S1826","000412","WILLIAM CANNON","NORTH BLUFF","AUSTIN",78745,"","Bus Stop","Mid-Block","Northwest","Active",30.19177278,-97.77413853,"Capital Metro","2017-08-17",2,1,"2-1"
"51",556,"110 William Cannon/Circle S","S1827","000110","WILLIAM CANNON","CIRCLE S","AUSTIN",78745,"","Bus Stop","Farside","Northwest","Active",30.19297089,-97.77795451,"Capital Metro","2017-08-17",2,1,"2-1"
"52",558,"6319 Congress/Circle S","S333","006319","CONGRESS","CIRCLE S","AUSTIN",78745,"","Bus Stop","Mid-Block","Northeast","Active",30.19739187,-97.77690803,"Capital Metro","2017-08-17",2,1,"2-1"
"53",559,"Little Texas Station (NB)","S330","005901","CONGRESS","LITTLE TEXAS","AUSTIN",78745,"","Rapid Station","Nearside","Southeast","Active",30.20214533,-97.77551477,"Capital Metro","2017-08-17",2,1,"2-1"
"54",560,"5405 Congress/Mockingbird","S328","005405","CONGRESS","MOCKINGBIRD","AUSTIN",78745,"","Bus Stop","Nearside","Southeast","Active",30.20710733,-97.7737329,"Capital Metro","2017-08-17",2,1,"2-1"
"55",565,"4401 Congress/St Elmo","S1828","004401","CONGRESS","ST ELMO","AUSTIN",78745,"","Bus Stop","Nearside","Southeast","Active",30.2173777,-97.76725101,"Capital Metro","2017-08-17",2,1,"2-1"
"56",568,"Congress/Alpine","S1831","003500","CONGRESS","ALPINE","AUSTIN",78704,"","Bus Stop","Farside","Northeast","Active",30.22824773,-97.76094296,"Capital Metro","2017-08-17",2,1,"2-1"
"57",569,"3307 Congress/Woodward","S319","003307","CONGRESS","WOODWARD","AUSTIN",78704,"","Bus Stop","Farside","Northeast","Active",30.23005522,-97.75983746,"Capital Metro","2017-08-17",2,1,"2-1"
"58",571,"2705 Congress/Cumberland","S316","002705","CONGRESS","CUMBERLAND","AUSTIN",78704,"","Bus Stop","Nearside","Southeast","Active",30.23534693,-97.75632993,"Capital Metro","2017-08-17",2,1,"2-1"
"59",573,"2203 Congress/Live Oak","S311","002203","CONGRESS","LIVE OAK","AUSTIN",78704,"","Bus Stop","Nearside","Southeast","Active",30.24168937,-97.75242262,"Capital Metro","2017-08-17",3,1,"3-1"
"60",574,"1901 Congress/Mary","S309S","001901","CONGRESS","MARY","AUSTIN",78704,"","Bus Stop","Nearside","Southeast","Active",30.24502402,-97.75121189,"Capital Metro","2017-08-17",3,1,"3-1"
"61",576,"Congress/The Circle","S1833","001221","CONGRESS","THE CIRCLE","AUSTIN",78704,"","Bus Stop","Mid-Block","Northeast","Active",30.25153144,-97.74878917,"Capital Metro","2017-08-17",3,1,"3-1"
"62",577,"611 Congress/Academy","S1834","000611","CONGRESS","ACADEMY","AUSTIN",78704,"","Bus Stop","Mid-Block","Northeast","Active",30.25534046,-97.74738952,"Capital Metro","2017-08-17",3,1,"3-1"
"63",578,"101 Congress/2nd","122SE","000101","CONGRESS","2ND","AUSTIN",78701,"","Bus Stop","Nearside","Southeast","Active",30.26417392,-97.74409777,"Capital Metro","2017-08-17",3,1,"3-1"
"64",580,"Congress/4th","S1838","000323","CONGRESS","4TH","AUSTIN",78701,"","Bus Stop","Nearside","Southeast","Active",30.26605228,-97.74339038,"Capital Metro","2017-08-17",3,1,"3-1"
"65",590,"Lavaca/12th","S1943","001100","LAVACA","12TH","AUSTIN",78701,"","Bus Stop","Nearside","Southeast","Active",30.27440792,-97.74299518,"Capital Metro","2017-08-17",3,1,"3-1"
"66",591,"Capitol Station (NB)","S1944","001200","LAVACA","13TH","AUSTIN",78701,"","Rapid Station","Nearside","Southeast","Active",30.27558669,-97.7425576,"Capital Metro","2017-08-17",3,1,"3-1"
"67",593,"Lavaca/15th","S1846","001415","LAVACA","15TH","AUSTIN",78701,"","Bus Stop","Nearside","Southeast","Active",30.27738322,-97.74189415,"Capital Metro","2017-08-17",3,1,"3-1"
"68",599,"Guadalupe/Dean Keeton","S23","002500","GUADALUPE","DEAN KEETON","AUSTIN",78712,"","Bus Stop","Nearside","Southeast","Active",30.28956584,-97.74130293,"Capital Metro","2017-08-17",3,1,"3-1"
"69",602,"Guadalupe/30th","S26","002927","GUADALUPE","30TH","AUSTIN",78705,"","Bus Stop","Nearside","Southeast","Active",30.29639,-97.74203,"Capital Metro","2017-08-17",3,1,"3-1"
"70",603,"3101 Guadalupe/31st","S28","003101","GUADALUPE","31ST","AUSTIN",78705,"","Bus Stop","Nearside","Southeast","Active",30.29778058,-97.741153,"Capital Metro","2017-08-17",3,1,"3-1"
"71",604,"Guadalupe/34th","S30","003300","GUADALUPE","34TH","AUSTIN",78705,"","Bus Stop","Nearside","Southeast","Active",30.3001807,-97.73963692,"Capital Metro","2017-08-17",3,2,"3-2"
"72",605,"Guadalupe/38th","S33","003713","GUADALUPE","38TH","AUSTIN",78705,"","Bus Stop","Nearside","Southeast","Active",30.30252622,-97.73815161,"Capital Metro","2017-08-17",3,2,"3-2"
"73",606,"Hyde Park Station (NB)","S35","003901","GUADALUPE","39TH","AUSTIN",78751,"","Rapid Station","Farside","Northeast","Active",30.30441786,-97.73694997,"Capital Metro","2017-08-17",3,2,"3-2"
"74",607,"Guadalupe/41st","S36","004031","GUADALUPE","41ST","AUSTIN",78751,"","Bus Stop","Nearside","Southeast","Active",30.30623354,-97.73578712,"Capital Metro","2017-08-17",3,2,"3-2"
"75",608,"Guadalupe/43rd","S38","004227","GUADALUPE","43RD","AUSTIN",78751,"","Bus Stop","Nearside","Southeast","Active",30.3085,-97.73434,"Capital Metro","2017-08-17",3,2,"3-2"
"76",609,"4413 Guadalupe/45th","200NB","004413","GUADALUPE","45TH","AUSTIN",78751,"","Bus Stop","Nearside","Southeast","Active",30.31073,-97.73293,"Capital Metro","2017-08-17",3,2,"3-2"
"77",610,"Triangle Station (NB)","S41","004701","GUADALUPE","46TH","AUSTIN",78751,"","Rapid Station","Mid-Block","Northeast","Active",30.31481615,-97.73226373,"Capital Metro","2017-08-17",3,2,"3-2"
"78",611,"5007 Lamar/51st","S43","005007","LAMAR","51ST","AUSTIN",78751,"","Bus Stop","Nearside","Southeast","Active",30.31841105,-97.73094729,"Capital Metro","2017-08-17",3,2,"3-2"
"79",612,"5301 Lamar/North Loop","S45","005301","LAMAR","NORTH LOOP","AUSTIN",78751,"","Bus Stop","Farside","Northeast","Active",30.32131934,-97.72909732,"Capital Metro","2017-08-17",3,2,"3-2"
"80",613,"5419 Lamar/Nelray","S46","005419","LAMAR","NELRAY","AUSTIN",78751,"","Bus Stop","Nearside","Southeast","Active",30.32278,-97.72819,"Capital Metro","2017-08-17",3,2,"3-2"
"81",614,"5555 Lamar/Nelray","S47","005555","LAMAR","NELRAY","AUSTIN",78751,"","Bus Stop","Mid-Block","Northeast","Active",30.32408628,-97.72736752,"Capital Metro","2017-08-17",3,2,"3-2"
"82",615,"5827 Lamar/Koenig","235NB","005827","LAMAR","KOENIG","AUSTIN",78751,"","Bus Stop","Nearside","Southeast","Active",30.32564412,-97.72637114,"Capital Metro","2017-08-17",3,2,"3-2"
"83",617,"6201 Lamar/Denson","S52","006201","LAMAR","DENSON","AUSTIN",78752,"","Bus Stop","Nearside","Southeast","Active",30.33018112,-97.7235334,"Capital Metro","2017-08-17",3,2,"3-2"
"84",618,"6541 Lamar/Brentwood","S53","006541","LAMAR","BRENTWOOD","AUSTIN",78752,"","Bus Stop","Nearside","Southeast","Active",30.33387,-97.72121,"Capital Metro","2017-08-17",3,2,"3-2"
"85",619,"6901 Lamar/Justin","S55","006901","LAMAR","JUSTIN","AUSTIN",78752,"","Bus Stop","Nearside","Southeast","Active",30.33654102,-97.71951065,"Capital Metro","2017-08-17",3,2,"3-2"
"86",620,"7200 Lamar/St Johns","S57","007200","LAMAR","ST JOHNS","AUSTIN",78757,"","Bus Stop","Nearside","Northwest","Active",30.33957656,-97.71791418,"Capital Metro","2017-08-17",3,2,"3-2"
"87",622,"7545 Lamar/Morrow","S60","007545","LAMAR","MORROW","AUSTIN",78752,"","Bus Stop","Nearside","Southeast","Active",30.34385,-97.71492,"Capital Metro","2017-08-17",3,2,"3-2"
"88",623,"8071 Lamar/Research","S1850","008071","LAMAR","RESEARCH","AUSTIN",78753,"","Bus Stop","Mid-Block","Northeast","Active",30.34828348,-97.71155795,"Capital Metro","2017-08-17",3,2,"3-2"
"89",624,"8415 Lamar/Thurmond","S61","008415","LAMAR","THURMOND","AUSTIN",78753,"","Bus Stop","Nearside","Southeast","Active",30.3531206,-97.7057297,"Capital Metro","2017-08-17",3,2,"3-2"
"90",626,"8631 Lamar/Elliott","S8","008631","LAMAR","ELLIOTT","AUSTIN",78753,"","Bus Stop","Nearside","Southeast","Active",30.35517358,-97.70292677,"Capital Metro","2017-08-17",3,2,"3-2"
"91",627,"8745 Lamar/Deen","S65","008745","LAMAR","DEEN","AUSTIN",78753,"","Bus Stop","Nearside","Southeast","Active",30.35640487,-97.70123967,"Capital Metro","2017-08-17",3,2,"3-2"
"92",628,"8911 Lamar/Carpenter","S67","008911","LAMAR","CARPENTER","AUSTIN",78753,"","Bus Stop","Nearside","Southeast","Active",30.35813794,-97.69962717,"Capital Metro","2017-08-17",3,2,"3-2"
"93",631,"Lott/Chico","252","001020","LOTT","CHICO","AUSTIN",78721,"","Bus Stop","Nearside","Northwest","Active",30.26882,-97.68306,"Capital Metro","2017-08-17",3,2,"3-2"
"94",632,"3810 Oak Springs/Springdale","SPOSSWB","003810","OAK SPRINGS","SPRINGDALE","AUSTIN",78721,"","Bus Stop","Farside","Northwest","Active",30.2736618,-97.69085023,"Capital Metro","2017-08-17",3,2,"3-2"
"95",633,"3700 Oak Springs/Springdale","S604","003700","OAK SPRINGS","SPRINGDALE","AUSTIN",78721,"","Bus Stop","Mid-Block","Northwest","Active",30.27377341,-97.69277082,"Capital Metro","2017-08-17",3,2,"3-2"
"96",634,"3200 Oak Springs/Airport","84SB","003200","OAK SPRINGS","AIRPORT","AUSTIN",78702,"","Bus Stop","Farside","Northwest","Active",30.27361,-97.69835,"Capital Metro","2017-08-17",3,2,"3-2"
"97",635,"Oak Springs/Ridgeway","S1854","002700","OAK SPRINGS","RIDGEWAY","AUSTIN",78702,"","Bus Stop","Nearside","Northeast","Active",30.27255583,-97.70456793,"Capital Metro","2017-08-17",3,2,"3-2"
"98",636,"2600 Rosewood/Ridgeway","S1855","002600","ROSEWOOD","RIDGEWAY","AUSTIN",78702,"","Bus Stop","Mid-Block","Northwest","Active",30.27250917,-97.70624079,"Capital Metro","2017-08-17",3,2,"3-2"
"99",637,"2420 Rosewood/Bedford","S612","002420","ROSEWOOD","BEDFORD","AUSTIN",78702,"","Bus Stop","Farside","Northwest","Active",30.27231946,-97.70829629,"Capital Metro","2017-08-17",3,2,"3-2"
"100",638,"2370 Rosewood/Hargrave","S614","002370","ROSEWOOD","HARGRAVE","AUSTIN",78702,"","Bus Stop","Mid-Block","Northwest","Active",30.27123633,-97.71064886,"Capital Metro","2017-08-17",3,2,"3-2"
"101",642,"Rosewood/San Bernard","S626","001300","ROSEWOOD","SAN BERNARD","AUSTIN",78702,"","Bus Stop","Nearside","Northeast","Active",30.26875576,-97.72550739,"Capital Metro","2017-08-17",3,2,"3-2"
"102",645,"E. 11th/Sabine","S1858","000700","11TH","SABINE","AUSTIN",78701,"","Bus Stop","Nearside","Northeast","Active",30.27089304,-97.73421237,"Capital Metro","2017-08-17",3,2,"3-2"
"103",657,"907 11th/Branch","S632","000907","11TH","BRANCH","AUSTIN",78702,"","Bus Stop","Farside","Southeast","Active",30.26986048,-97.73124103,"Capital Metro","2017-08-17",3,2,"3-2"
"104",658,"11th/Waller","S630","001000","11TH","WALLER","AUSTIN",78702,"","Bus Stop","Nearside","Southwest","Active",30.26927241,-97.72967713,"Capital Metro","2017-08-17",3,2,"3-2"
"105",659,"1201 11th/Lydia","S1903","001201","11TH","LYDIA","AUSTIN",78702,"","Bus Stop","Farside","Southeast","Active",30.26861325,-97.72781951,"Capital Metro","2017-08-17",3,2,"3-2"
"106",660,"1213 Rosewood/San Bernard","S627","001213","ROSEWOOD","SAN BERNARD","AUSTIN",78702,"","Bus Stop","Mid-Block","Southwest","Active",30.26852996,-97.72604945,"Capital Metro","2017-08-17",3,2,"3-2"
"107",661,"1319 Rosewood/Angelina","S625","001319","ROSEWOOD","ANGELINA","AUSTIN",78702,"","Bus Stop","Nearside","Southwest","Active",30.26878,-97.72446,"Capital Metro","2017-08-17",3,2,"3-2"
"108",663,"1909 Rosewood/Chicon","142NB","001909","ROSEWOOD","CHICON","AUSTIN",78702,"","Bus Stop","Farside","Southeast","Active",30.26969617,-97.71860068,"Capital Metro","2017-08-17",3,2,"3-2"
"109",664,"Rosewood/Northwestern","S1897","002100","ROSEWOOD","NORTHWESTERN","AUSTIN",78702,"","Bus Stop","Nearside","Southwest","Active",30.27,-97.71674,"Capital Metro","2017-08-17",3,2,"3-2"
"110",665,"2365 Rosewood/Hargrave","S615","002365","ROSEWOOD","HARGRAVE","AUSTIN",78702,"","Bus Stop","Nearside","Southwest","Active",30.27098778,-97.71088004,"Capital Metro","2017-08-17",3,2,"3-2"
"111",666,"Rosewood/Webberville","S610","002600","ROSEWOOD","WEBBERVILLE","AUSTIN",78702,"","Bus Stop","Nearside","Southwest","Active",30.27235735,-97.70514373,"Capital Metro","2017-08-17",3,2,"3-2"
"112",667,"2807 Oak Springs/Webberville","S1898","002807","OAK SPRINGS","WEBBERVILLE","AUSTIN",78702,"","Bus Stop","Mid-Block","Southeast","Active",30.27278742,-97.70232089,"Capital Metro","2017-08-17",3,2,"3-2"
"113",668,"3201 Oak Springs/Airport","84NB","003201","OAK SPRINGS","AIRPORT","AUSTIN",78702,"","Bus Stop","Nearside","Southwest","Active",30.27343427,-97.6984274,"Capital Metro","2017-08-17",3,2,"3-2"
"114",669,"Oak Springs/Springdale","SPOSS","003800","OAK SPRINGS","SPRINGDALE","AUSTIN",78721,"","Bus Stop","Mid-Block","Southeast","Active",30.27353366,-97.69129579,"Capital Metro","2017-08-17",3,2,"3-2"
"115",670,"Ledesma/Springdale","S599","004606","LEDESMA","SPRINGDALE","AUSTIN",78721,"","Bus Stop","Farside","Southeast","Active",30.27380272,-97.68982653,"Capital Metro","2017-08-17",3,2,"3-2"
"116",671,"4903 Ledesma/Mendoza","S597","004903","LEDESMA","MENDOZA","AUSTIN",78721,"","Bus Stop","Farside","Southeast","Active",30.27269907,-97.68749108,"Capital Metro","2017-08-17",3,2,"3-2"
"117",672,"Ledesma/Richardine","S1901","005100","LEDESMA","RICHARDINE","AUSTIN",78721,"","Bus Stop","Nearside","Southwest","Active",30.27190707,-97.68567916,"Capital Metro","2017-08-17",3,2,"3-2"
"118",673,"Ledesma/Cessal","S1902","005211","LEDESMA","CESSAL","AUSTIN",78721,"","Bus Stop","Nearside","Southwest","Active",30.27122084,-97.68406559,"Capital Metro","2017-08-17",3,2,"3-2"
"119",674,"Northcross Transfer Center","294T","007656","NORTHCROSS","FOSTER","AUSTIN",78757,"","Bus Stop","Mid-Block","Southwest","Active",30.35361,-97.73592,"Capital Metro","2017-08-17",3,2,"3-2"
"120",675,"7500 Burnet/Richcreek","S935","007500","BURNET","RICHCREEK","AUSTIN",78757,"","Bus Stop","Nearside","Northwest","Active",30.35065955,-97.73436184,"Capital Metro","2017-08-17",3,2,"3-2"
"121",678,"Burnet/Twin Oaks Dr.","S938","006610","BURNET","TWIN OAKS","AUSTIN",78757,"","Bus Stop","Nearside","Northwest","Active",30.34269291,-97.73867123,"Capital Metro","2017-08-17",3,2,"3-2"
"122",684,"North Loop Station (SB)","S944","005242","BURNET","NORTH LOOP","AUSTIN",78756,"","Rapid Station","Farside","Southwest","Active",30.32499908,-97.73968146,"Capital Metro","2017-08-17",3,2,"3-2"
"123",685,"Burnet/Hancock","S945","005100","BURNET","HANCOCK","AUSTIN",78756,"","Bus Stop","Nearside","Northwest","Active",30.32221273,-97.73943584,"Capital Metro","2017-08-17",3,2,"3-2"
"124",686,"Burnet/W. 49th","S946","004900","BURNET","49TH","AUSTIN",78756,"","Bus Stop","Nearside","Northwest","Active",30.32033263,-97.73931346,"Capital Metro","2017-08-17",3,2,"3-2"
"125",687,"Burnet/W. 47th","S947","004700","BURNET","47TH","AUSTIN",78756,"","Bus Stop","Nearside","Northwest","Active",30.31812557,-97.73995173,"Capital Metro","2017-08-17",3,2,"3-2"
"126",688,"Burnet/W. 45th","S948","004500","BURNET","45TH","AUSTIN",78756,"","Bus Stop","Nearside","Northwest","Active",30.31552807,-97.74162146,"Capital Metro","2017-08-17",3,1,"3-1"
"127",689,"4214 Medical Parkway/43rd","S949","004214","MEDICAL","43RD","AUSTIN",78756,"","Bus Stop","Nearside","Northwest","Active",30.3124743,-97.742371,"Capital Metro","2017-08-17",3,1,"3-1"
"128",690,"4112 Medical Parkway/42nd","S950","004112","MEDICAL","42ND","AUSTIN",78756,"","Bus Stop","Farside","Southwest","Active",30.31090076,-97.74266652,"Capital Metro","2017-08-17",3,1,"3-1"
"129",691,"Medical Pkwy/W. 40th","S951","004000","MEDICAL","40TH","AUSTIN",78756,"","Bus Stop","Nearside","Northwest","Active",30.30856554,-97.74274465,"Capital Metro","2017-08-17",3,1,"3-1"
"130",695,"3120 Lamar/32nd","S955","003120","LAMAR","32ND","AUSTIN",78705,"","Bus Stop","Nearside","Northwest","Active",30.30123602,-97.74573955,"Capital Metro","2017-08-17",3,1,"3-1"
"131",716,"800 Cesar Chavez/West","S164","000800","CESAR CHAVEZ","WEST","AUSTIN",78701,"","Bus Stop","Farside","Northwest","Temporarily Clo",30.26574123,-97.75240558,"Capital Metro","2017-08-17",3,1,"3-1"
"132",717,"B R Reynolds/Lamar","S221","000200","B R REYNOLDS","LAMAR","AUSTIN",78703,"","Bus Stop","Nearside","Southwest","Active",30.26740157,-97.75657645,"Capital Metro","2017-08-17",3,1,"3-1"
"133",722,"1414 Lamar/Cinco","S165","001414","LAMAR","CINCO","AUSTIN",78704,"","Bus Stop","Nearside","Northwest","Active",30.25246518,-97.76411399,"Capital Metro","2017-08-17",3,1,"3-1"
"134",726,"2506 Lamar/La Casa","S3438","002506","LAMAR","LA CASA","AUSTIN",78704,"","Bus Stop","Nearside","Northwest","Active",30.24631152,-97.77873016,"Capital Metro","2017-08-17",3,1,"3-1"
"135",728,"2806 Manchaca/Lightsey","S209","002806","MANCHACA","LIGHTSEY","AUSTIN",78704,"","Bus Stop","Nearside","Northwest","Active",30.24303493,-97.78162764,"Capital Metro","2017-08-17",3,1,"3-1"
"136",729,"3204 Manchaca/Glen Allen","S207","003204","MANCHACA","GLEN ALLEN","AUSTIN",78704,"","Bus Stop","Farside","Southwest","Active",30.24034519,-97.7822417,"Capital Metro","2017-08-17",3,1,"3-1"
"137",730,"3624 Manchaca/Larchmont","S2439","003624","MANCHACA","LARCHMONT","AUSTIN",78704,"","Bus Stop","Mid-Block","Southwest","Active",30.23745227,-97.78356842,"Capital Metro","2017-08-17",2,1,"2-1"
"138",732,"3906 Manchaca/Prather","S202","003906","MANCHACA","PRATHER","AUSTIN",78704,"","Bus Stop","Nearside","Northwest","Active",30.23396888,-97.78576524,"Capital Metro","2017-08-17",2,1,"2-1"
"139",733,"4308 Manchaca/Ben White","259SB","004308","MANCHACA","BEN WHITE","AUSTIN",78704,"","Bus Stop","Nearside","Northwest","Active",30.23050368,-97.78811229,"Capital Metro","2017-08-17",2,1,"2-1"
"140",734,"4430 Manchaca/Redd","S172","004430","MANCHACA","REDD","AUSTIN",78745,"","Bus Stop","Nearside","Northwest","Active",30.22846366,-97.78938049,"Capital Metro","2017-08-17",2,1,"2-1"
"141",735,"4616 Manchaca/Forest Hill","S177","004616","MANCHACA","FOREST HILL","AUSTIN",78745,"","Bus Stop","Nearside","Northwest","Active",30.22599097,-97.79091579,"Capital Metro","2017-08-17",2,1,"2-1"
"142",736,"4804 Manchaca/Frontier","S178","004804","MANCHACA","FRONTIER","AUSTIN",78745,"","Bus Stop","Farside","Southwest","Active",30.22374291,-97.79234742,"Capital Metro","2017-08-17",2,1,"2-1"
"143",737,"5000 Manchaca/Jones","S196","005000","MANCHACA","JONES","AUSTIN",78745,"","Bus Stop","Nearside","Northwest","Active",30.22097509,-97.79406744,"Capital Metro","2017-08-17",2,1,"2-1"
"144",739,"5322 Manchaca/Inverness","S193","005322","MANCHACA","INVERNESS","AUSTIN",78745,"","Bus Stop","Farside","Southwest","Active",30.21780314,-97.79599473,"Capital Metro","2017-08-17",2,1,"2-1"
"145",740,"5532 Manchaca/Stassney","S190","005532","MANCHACA","STASSNEY","AUSTIN",78745,"","Bus Stop","Nearside","Northwest","Active",30.21605807,-97.79716315,"Capital Metro","2017-08-17",2,1,"2-1"
"146",742,"5720 Manchaca/Whitestone","S189","005720","MANCHACA","WHITESTONE","AUSTIN",78745,"","Bus Stop","Mid-Block","Southwest","Active",30.21439146,-97.79951932,"Capital Metro","2017-08-17",2,1,"2-1"
"147",755,"5701 Manchaca/Whitestone","S2347","005701","MANCHACA","WHITESTONE","AUSTIN",78745,"","Bus Stop","Nearside","Southeast","Active",30.21449105,-97.79885632,"Capital Metro","2017-08-17",2,1,"2-1"
"148",758,"5309 Manchaca/Fair Oaks","S194","005309","MANCHACA","FAIR OAKS","AUSTIN",78745,"","Bus Stop","Nearside","Southeast","Active",30.21905857,-97.79499758,"Capital Metro","2017-08-17",2,1,"2-1"
"149",764,"4301 Manchaca/Fort View","S199","004301","MANCHACA","FORT VIEW","AUSTIN",78704,"","Bus Stop","Nearside","Southeast","Active",30.23086024,-97.78759926,"Capital Metro","2017-08-17",2,1,"2-1"
"150",765,"3909 Manchaca/Prather","S201","003909","MANCHACA","PRATHER","AUSTIN",78704,"","Bus Stop","Farside","Northeast","Active",30.23404949,-97.78551382,"Capital Metro","2017-08-17",2,1,"2-1"
"151",767,"3505 Manchaca/Larchmont","S204","003505","MANCHACA","LARCHMONT","AUSTIN",78704,"","Bus Stop","Nearside","Southeast","Active",30.23829539,-97.78291519,"Capital Metro","2017-08-17",2,1,"2-1"
"152",768,"3201 Manchaca/Glen Allen","S206","003201","MANCHACA","GLEN ALLEN","AUSTIN",78704,"","Bus Stop","Nearside","Southeast","Active",30.24051198,-97.78208353,"Capital Metro","2017-08-17",3,1,"3-1"
"153",771,"2639 Lamar/Dickson","S2352","002639","LAMAR","DICKSON","AUSTIN",78704,"","Bus Stop","Farside","Northeast","Active",30.24537706,-97.77969295,"Capital Metro","2017-08-17",3,1,"3-1"
"154",772,"2401 Lamar/Bluebonnet","S2353","002401","LAMAR","BLUEBONNET","AUSTIN",78704,"","Bus Stop","Nearside","Southwest","Active",30.24675173,-97.77739539,"Capital Metro","2017-08-17",3,1,"3-1"
"155",773,"2201 Lamar/Kinney","S2354","002201","LAMAR","KINNEY","AUSTIN",78704,"","Bus Stop","Nearside","Southwest","Active",30.24727869,-97.77427814,"Capital Metro","2017-08-17",3,1,"3-1"
"156",776,"1417 Lamar/Cinco","S212","001417","LAMAR","CINCO","AUSTIN",78704,"","Bus Stop","Nearside","Southeast","Active",30.25228928,-97.76397235,"Capital Metro","2017-08-17",3,1,"3-1"
"157",777,"Lamar Square Station (NB)","S2356","001303","LAMAR","LAMAR SQUARE","AUSTIN",78704,"","Rapid Station","Nearside","Southeast","Active",30.25403364,-97.76259222,"Capital Metro","2017-08-17",3,1,"3-1"
"158",781,"Barton Springs Station (NB)","S218","000401","LAMAR","BUTLER","AUSTIN",78704,"","Rapid Station","Nearside","Southeast","Active",30.26163385,-97.75805266,"Capital Metro","2017-08-17",3,1,"3-1"
"159",806,"3105 Lamar/31st","S2012","003105","LAMAR","31ST","AUSTIN",78705,"","Bus Stop","Mid-Block","Northeast","Active",30.30053015,-97.74595395,"Capital Metro","2017-08-17",3,1,"3-1"
"160",807,"3317 Lamar/34th","S911","003317","LAMAR","34TH","AUSTIN",78705,"","Bus Stop","Nearside","Southeast","Active",30.30255348,-97.74468329,"Capital Metro","2017-08-17",3,1,"3-1"
"161",809,"38th/Medical Pkwy","S912","001010","38TH","MEDICAL","AUSTIN",78756,"","Bus Stop","Nearside","Northeast","Active",30.30568622,-97.74387865,"Capital Metro","2017-08-17",3,1,"3-1"
"162",811,"Medical Pkwy/41st","S914","004000","MEDICAL","41ST","AUSTIN",78756,"","Bus Stop","Nearside","Southeast","Active",30.30973113,-97.74257581,"Capital Metro","2017-08-17",3,1,"3-1"
"163",813,"Medical Pkwy/44th","S916","004400","MEDICAL","44TH","AUSTIN",78756,"","Bus Stop","Farside","Northeast","Active",30.31405397,-97.74191637,"Capital Metro","2017-08-17",3,1,"3-1"
"164",814,"Burnet/45th","S917","004500","BURNET","45TH","AUSTIN",78756,"","Bus Stop","Mid-Block","Northeast","Active",30.31599958,-97.74102605,"Capital Metro","2017-08-17",3,1,"3-1"
"165",815,"Burnet/49th","S965","004800","BURNET","49TH","AUSTIN",78756,"","Bus Stop","Nearside","Southeast","Active",30.32049391,-97.7391454,"Capital Metro","2017-08-17",3,2,"3-2"
"166",816,"5011 Burnet/Hancock","S919","005011","BURNET","HANCOCK","AUSTIN",78756,"","Bus Stop","Nearside","Southeast","Active",30.32176554,-97.7392421,"Capital Metro","2017-08-17",3,2,"3-2"
"167",817,"North Loop Station (NB)","S2013","005229","BURNET","NORTH","AUSTIN",78756,"","Rapid Station","Mid-Block","Southeast","Active",30.32628396,-97.7395663,"Capital Metro","2017-08-17",3,2,"3-2"
"168",819,"Burnet/Houston","S921","005411","BURNET","HOUSTON","AUSTIN",78756,"","Bus Stop","Nearside","Southeast","Active",30.32876595,-97.73974191,"Capital Metro","2017-08-17",3,2,"3-2"
"169",820,"Burnet/Adams","S922","005500","BURNET","ADAMS","AUSTIN",78756,"","Bus Stop","Farside","Northeast","Active",30.33044581,-97.73987586,"Capital Metro","2017-08-17",3,2,"3-2"
"170",821,"5621 Burnet/Northland","S923","005621","BURNET","NORTHLAND","AUSTIN",78756,"","Bus Stop","Nearside","Southeast","Active",30.33238419,-97.73999701,"Capital Metro","2017-08-17",3,2,"3-2"
"171",822,"Allandale Station (NB)","118NB","005829","BURNET","KOENIG","AUSTIN",78756,"","Rapid Station","Nearside","Southeast","Active",30.33420024,-97.73980027,"Capital Metro","2017-08-17",3,2,"3-2"
"172",824,"6425 Burnet/Whitehorse","S2014","006425","BURNET","WHITEHORSE","AUSTIN",78757,"","Bus Stop","Mid-Block","Northeast","Active",30.33997024,-97.73890007,"Capital Metro","2017-08-17",3,2,"3-2"
"173",826,"Justin Station (NB)","S928","006827","BURNET","JUSTIN","AUSTIN",78757,"","Rapid Station","Nearside","Southeast","Active",30.34518333,-97.73755,"Capital Metro","2017-08-17",3,2,"3-2"
"174",827,"Burnet/Greenlawn Pkwy","S929","007301","BURNET","GREENLAWN","AUSTIN",78757,"","Bus Stop","Mid-Block","Northeast","Active",30.34851,-97.73545,"Capital Metro","2017-08-17",3,2,"3-2"
"175",828,"7439 Burnet/Richcreek","S930","007439","BURNET","RICHCREEK","AUSTIN",78757,"","Bus Stop","Nearside","Southeast","Active",30.3504,-97.73424,"Capital Metro","2017-08-17",3,2,"3-2"
"176",829,"Northcross Station (NB)","S931","007719","BURNET","ST JOSEPH","AUSTIN",78757,"","Rapid Station","Mid-Block","Northeast","Active",30.35385839,-97.73208065,"Capital Metro","2017-08-17",3,2,"3-2"
"177",830,"Northcross Mall","293","007711","BURNET","NORTHCROSS MALL","Austin",78757,"","","Mid-Block","Southwest","Active",30.35614736,-97.73364687,"Capital Metro","2017-08-17",3,2,"3-2"
"178",831,"ACC Riverside Campus Stop","72","001020","ACC","GROVE","AUSTIN",78741,"","Bus Stop","Mid-Block","Northwest","Active",30.23621381,-97.70485634,"Capital Metro","2017-08-17",2,2,"2-2"
"179",832,"Hogan/Community","S1112","005900","HOGAN","COMMUNITY","AUSTIN",78741,"","Bus Stop","Nearside","Southwest","Active",30.23645941,-97.70155189,"Capital Metro","2017-08-17",2,2,"2-2"
"180",833,"Hogan/Montopolis","S1113","006217","HOGAN","MONTOPOLIS","AUSTIN",78741,"","Bus Stop","Nearside","Southwest","Active",30.23455389,-97.69747816,"Capital Metro","2017-08-17",2,2,"2-2"
"181",834,"1214 Montopolis/Larch","S1114","001214","MONTOPOLIS","LARCH","AUSTIN",78741,"","Bus Stop","Nearside","Northwest","Active",30.23243375,-97.69876876,"Capital Metro","2017-08-17",2,2,"2-2"
"182",836,"1501 Vargas/Riverside","S1117","001501","VARGAS","RIVERSIDE","AUSTIN",78741,"","Bus Stop","Farside","Northeast","Active",30.22447998,-97.70068549,"Capital Metro","2017-08-17",2,2,"2-2"
"183",837,"1413 Vargas/Cruz","S2025","001413","VARGAS","CRUZ","AUSTIN",78741,"","Bus Stop","Nearside","Southeast","Active",30.2278631,-97.69818942,"Capital Metro","2017-08-17",2,2,"2-2"
"184",838,"1301 Vargas/Porter","S1118","001301","VARGAS","PORTER","AUSTIN",78741,"","Bus Stop","Nearside","Southeast","Active",30.22947319,-97.69697355,"Capital Metro","2017-08-17",2,2,"2-2"
"185",839,"1101 Vargas/Montana","S1119","001101","VARGAS","MONTANA","AUSTIN",78741,"","Bus Stop","Nearside","Southeast","Active",30.23144063,-97.69550537,"Capital Metro","2017-08-17",2,2,"2-2"
"186",840,"901 Vargas/Felix","S1120","000901","VARGAS","FELIX","AUSTIN",78741,"","Bus Stop","Nearside","Southeast","Active",30.23363307,-97.69387805,"Capital Metro","2017-08-17",2,2,"2-2"
"187",841,"603 Vargas/Ponca","S2026","000603","VARGAS","PONCA","AUSTIN",78741,"","Bus Stop","Mid-Block","Northeast","Active",30.2363462,-97.69190027,"Capital Metro","2017-08-17",2,2,"2-2"
"188",843,"5012 7th/Shady","S1122","005012","7TH","SHADY","AUSTIN",78702,"","Bus Stop","Farside","Northwest","Active",30.25383651,-97.69817167,"Capital Metro","2017-08-17",3,2,"3-2"
"189",844,"4600 7th/Springdale","S1123","004600","7TH","SPRINGDALE","AUSTIN",78702,"","Bus Stop","Nearside","Northeast","Active",30.25595514,-97.7013846,"Capital Metro","2017-08-17",3,2,"3-2"
"190",845,"3300 7th/Allen","S1124","003300","7TH","ALLEN","AUSTIN",78702,"","Bus Stop","Nearside","Northeast","Active",30.25782159,-97.70425607,"Capital Metro","2017-08-17",3,2,"3-2"
"191",847,"2700 7th/Calles","S1126","002700","7TH","CALLES","AUSTIN",78702,"","Bus Stop","Nearside","Northeast","Active",30.26066503,-97.71152051,"Capital Metro","2017-08-17",3,2,"3-2"
"192",848,"2500 7th/Pedernales","S1127","002500","7TH","PEDERNALES","AUSTIN",78702,"","Bus Stop","Nearside","Northeast","Active",30.26096279,-97.71355986,"Capital Metro","2017-08-17",3,2,"3-2"
"193",856,"6th/Medina","S1135","001100","6TH","MEDINA","AUSTIN",78702,"","Bus Stop","Nearside","Northeast","Active",30.26478988,-97.73140308,"Capital Metro","2017-08-17",3,2,"3-2"
"194",857,"6th/Brushy","S1136","000900","6TH","BRUSHY","AUSTIN",78702,"","Bus Stop","Nearside","Northeast","Active",30.26548465,-97.73344455,"Capital Metro","2017-08-17",3,2,"3-2"
"195",863,"11th/San Jacinto SW Corner","372SW","000200","11TH","SAN JACINTO","AUSTIN",78701,"","Bus Stop","Nearside","Southwest","Active",30.27199991,-97.73883637,"Capital Metro","2017-08-17",3,2,"3-2"
"196",864,"Trinity/12th","S2033","001117","TRINITY","12TH","AUSTIN",78701,"","Bus Stop","Nearside","Southeast","Active",30.27270884,-97.73714986,"Capital Metro","2017-08-17",3,2,"3-2"
"197",865,"Trinity/15th","S2034","001400","TRINITY","15TH","AUSTIN",78701,"","Bus Stop","Nearside","Southeast","Active",30.27578637,-97.73602848,"Capital Metro","2017-08-17",3,2,"3-2"
"198",866,"Trinity/18th","S2035","001700","TRINITY","18TH","AUSTIN",78701,"","Bus Stop","Nearside","Southeast","Temporarily Clo",30.27843466,-97.73498528,"Capital Metro","2017-08-17",3,2,"3-2"
"199",870,"1509 Martin Luther King/Comal","S489","001509","MARTIN LUTHER KING","COMAL","AUSTIN",78702,"","Bus Stop","Farside","Southeast","Active",30.27907399,-97.72470098,"Capital Metro","2017-08-17",3,2,"3-2"
"200",871,"1703 Martin Luther King/Leona","S487","001703","MARTIN LUTHER KING","LEONA","AUSTIN",78702,"","Bus Stop","Farside","Southeast","Active",30.27940648,-97.72284357,"Capital Metro","2017-08-17",3,2,"3-2"
"201",872,"1813 Martin Luther King/Chicon","141NB","001813","MARTIN LUTHER KING","CHICON","AUSTIN",78702,"","Bus Stop","Nearside","Southwest","Active",30.27969503,-97.72137166,"Capital Metro","2017-08-17",3,2,"3-2"
"202",873,"2207 Martin Luther King/Ferdin","S484","002207","MARTIN LUTHER KING","FERDINAND","AUSTIN",78702,"","Bus Stop","Farside","Southeast","Active",30.28023019,-97.71813651,"Capital Metro","2017-08-17",3,2,"3-2"
"203",874,"2401 Martin Luther King/Maple","S482","002401","MARTIN LUTHER KING","MAPLE","AUSTIN",78702,"","Bus Stop","Farside","Southeast","Active",30.28058628,-97.71594906,"Capital Metro","2017-08-17",3,2,"3-2"
"204",875,"2615 Martin Luther King/Walnut","S481","002615","MARTIN LUTHER KING","WALNUT","AUSTIN",78702,"","Bus Stop","Nearside","Southwest","Active",30.28097191,-97.71345772,"Capital Metro","2017-08-17",3,2,"3-2"
"205",877,"2915 Martin Luther King/Cliffo","S478","002915","MARTIN LUTHER KING","CLIFFORD","AUSTIN",78702,"","Bus Stop","Nearside","Southwest","Active",30.28186864,-97.70779865,"Capital Metro","2017-08-17",3,2,"3-2"
"206",880,"3431 Martin Luther King/Greenw","S2036","003431","MARTIN LUTHER KING","GREENWOOD","AUSTIN",78721,"","Bus Stop","Farside","Southeast","Active",30.28331826,-97.69819697,"Capital Metro","2017-08-17",3,2,"3-2"
"207",881,"3601 Martin Luther King/EM Fra","S469","003601","MARTIN LUTHER KING","E M FRANKLIN","AUSTIN",78721,"","Bus Stop","Farside","Southeast","Active",30.28369938,-97.69571236,"Capital Metro","2017-08-17",3,2,"3-2"
"208",882,"3815 Martin Luther King/Perez","S468","003815","MARTIN LUTHER KING","PEREZ","AUSTIN",78721,"","Bus Stop","Nearside","Southwest","Active",30.28409136,-97.69316106,"Capital Metro","2017-08-17",3,2,"3-2"
"209",886,"Martin Luther King/Springdale","388EB","004500","MARTIN LUTHER KING","SPRINGDALE","AUSTIN",78721,"","Bus Stop","Nearside","Southwest","Active",30.28569,-97.68292,"Capital Metro","2017-08-17",3,2,"3-2"
"210",898,"4600 Martin Luther King/Spring","388WB","004600","MARTIN LUTHER KING","SPRINGDALE","AUSTIN",78723,"","Bus Stop","Nearside","Northeast","Active",30.28599259,-97.68224534,"Capital Metro","2017-08-17",3,2,"3-2"
"211",902,"3900 Martin Luther King/Perez","S467","003900","MARTIN LUTHER KING","PEREZ","AUSTIN",78723,"","Bus Stop","Nearside","Northeast","Active",30.28434226,-97.69295055,"Capital Metro","2017-08-17",3,2,"3-2"
"212",905,"3300 Martin Luther King/Tiller","S473","003300","MARTIN LUTHER KING","TILLERY","AUSTIN",78723,"","Bus Stop","Nearside","Northeast","Active",30.28302247,-97.70154437,"Capital Metro","2017-08-17",3,2,"3-2"
"213",909,"2700 Martin Luther King/Walnut","S440","002700","MARTIN LUTHER KING","WALNUT","AUSTIN",78722,"","Bus Stop","Nearside","Northeast","Active",30.28113011,-97.71331666,"Capital Metro","2017-08-17",3,2,"3-2"
"214",910,"2300 Martin Luther King/Chestn","S483","002300","MARTIN LUTHER KING","CHESTNUT","AUSTIN",78722,"","Bus Stop","Nearside","Northeast","Active",30.28054941,-97.71713644,"Capital Metro","2017-08-17",3,2,"3-2"
"215",911,"1900 Martin Luther King/Chicon","141SB","001900","MARTIN LUTHER KING","CHICON","AUSTIN",78722,"","Bus Stop","Nearside","Northeast","Active",30.27987727,-97.72110075,"Capital Metro","2017-08-17",3,2,"3-2"
"216",912,"1700 Martin Luther King/Leona","S488","001700","MARTIN LUTHER KING","LEONA","AUSTIN",78722,"","Bus Stop","Nearside","Northeast","Active",30.27950198,-97.72309531,"Capital Metro","2017-08-17",3,2,"3-2"
"217",913,"1498 Martin Luther King/Comal","S441","001498","MARTIN LUTHER KING","COMAL","AUSTIN",78722,"","Bus Stop","Farside","Northwest","Active",30.27907499,-97.72560201,"Capital Metro","2017-08-17",3,2,"3-2"
"218",915,"1806 San Jacinto/Martin Luther","S2043","001806","SAN JACINTO","MARTIN LUTHER KING","AUSTIN",78701,"","Bus Stop","Farside","Southwest","Active",30.27950808,-97.73601897,"Capital Metro","2017-08-17",3,2,"3-2"
"219",919,"San Jacinto/14th","S2047","001400","SAN JACINTO","14TH","AUSTIN",78701,"","Bus Stop","Nearside","Northwest","Active",30.27545135,-97.73752573,"Capital Metro","2017-08-17",3,2,"3-2"
"220",921,"San Jacinto/12th","S2049","001200","SAN JACINTO","12TH","AUSTIN",78701,"","Bus Stop","Nearside","Northwest","Active",30.27338645,-97.73828046,"Capital Metro","2017-08-17",3,2,"3-2"
"221",922,"San Jacinto/11th","372NW","001100","SAN JACINTO","11TH","AUSTIN",78701,"","Bus Stop","Nearside","Northwest","Active",30.27221336,-97.73871849,"Capital Metro","2017-08-17",3,2,"3-2"
"222",928,"IH-35/East 7th","215SB","000700","7TH","IH-35","AUSTIN",78701,"","Bus Stop","Nearside","Southwest","Active",30.26689519,-97.73529923,"Capital Metro","2017-08-17",3,2,"3-2"
"223",929,"7th/San Marcos","S1087","000900","7TH","SAN MARCOS","AUSTIN",78702,"","Bus Stop","Nearside","Southwest","Active",30.26597113,-97.73226809,"Capital Metro","2017-08-17",3,2,"3-2"
"224",930,"7th/Waller","S1088","001200","7TH","WALLER","AUSTIN",78702,"","Bus Stop","Nearside","Southwest","Active",30.26527117,-97.73024686,"Capital Metro","2017-08-17",3,2,"3-2"
"225",931,"7th/Navasota","S1089","001300","7TH","NAVASOTA","AUSTIN",78702,"","Bus Stop","Nearside","Southwest","Active",30.26458297,-97.72817793,"Capital Metro","2017-08-17",3,2,"3-2"
"226",933,"7th/Chalmers","S1091","001600","7TH","CHALMERS","AUSTIN",78702,"","Bus Stop","Nearside","Southwest","Active",30.26316962,-97.72426781,"Capital Metro","2017-08-17",3,2,"3-2"
"227",934,"Chicon/East 7th","138SB","001800","7TH","CHICON","AUSTIN",78702,"","Bus Stop","Nearside","Southwest","Active",30.26251138,-97.72232717,"Capital Metro","2017-08-17",3,2,"3-2"
"228",935,"7th/Robert T Martinez Jr","S1093","002100","7TH","ROBERT T MARTINEZ JR","AUSTIN",78702,"","Bus Stop","Nearside","Southwest","Active",30.26153155,-97.71819542,"Capital Metro","2017-08-17",3,2,"3-2"
"229",936,"2425 7th/Pedernales","S1094","002425","7TH","PEDERNALES","AUSTIN",78702,"","Bus Stop","Nearside","Southwest","Active",30.26085119,-97.7139043,"Capital Metro","2017-08-17",3,2,"3-2"
"230",937,"2621 7th/Calles","S2021","002621","7TH","CALLES","AUSTIN",78702,"","Bus Stop","Nearside","Southwest","Active",30.26053343,-97.71183066,"Capital Metro","2017-08-17",3,2,"3-2"
"231",938,"2789 7th/Pleasant Valley","63SB","002789","7TH","PLEASANT VALLEY","AUSTIN",78702,"","Bus Stop","Nearside","Southwest","Active",30.26006553,-97.70967381,"Capital Metro","2017-08-17",3,2,"3-2"
"232",939,"3223 7th/Allen","S1096","003223","7TH","ALLEN","AUSTIN",78702,"","Bus Stop","Nearside","Southwest","Active",30.25775756,-97.70451418,"Capital Metro","2017-08-17",3,2,"3-2"
"233",940,"3535 7th/Springdale","S1097","003535","7TH","SPRINGDALE","AUSTIN",78702,"","Bus Stop","Nearside","Southwest","Active",30.25602546,-97.7018194,"Capital Metro","2017-08-17",3,2,"3-2"
"234",942,"5021 7th/Shady","S1099","005021","7TH","SHADY","AUSTIN",78702,"","Bus Stop","Nearside","Southwest","Active",30.25339697,-97.69788622,"Capital Metro","2017-08-17",3,2,"3-2"
"235",944,"618 Vargas/Ponca","S1101","000618","VARGAS","PONCA","AUSTIN",78741,"","Bus Stop","Nearside","Northwest","Active",30.23573551,-97.69255733,"Capital Metro","2017-08-17",2,2,"2-2"
"236",945,"818 Vargas/Felix","S1102","000818","VARGAS","FELIX","AUSTIN",78741,"","Bus Stop","Nearside","Northwest","Active",30.23382194,-97.6939334,"Capital Metro","2017-08-17",2,2,"2-2"
"237",946,"1100 Vargas/Montana","S1103","001100","VARGAS","MONTANA","AUSTIN",78741,"","Bus Stop","Farside","Southwest","Active",30.23141813,-97.69572423,"Capital Metro","2017-08-17",2,2,"2-2"
"238",947,"1220 Vargas/Porter","S2022","001220","VARGAS","PORTER","AUSTIN",78741,"","Bus Stop","Nearside","Northwest","Active",30.22965441,-97.69702918,"Capital Metro","2017-08-17",2,2,"2-2"
"239",948,"1420 Vargas/Santos","S1105","001420","VARGAS","SANTOS","AUSTIN",78741,"","Bus Stop","Nearside","Northwest","Active",30.22764467,-97.69853775,"Capital Metro","2017-08-17",2,2,"2-2"
"240",949,"1900 Vargas/Riverside","S1106","001900","VARGAS","RIVERSIDE","AUSTIN",78741,"","Bus Stop","Nearside","Northwest","Active",30.22429015,-97.70105819,"Capital Metro","2017-08-17",2,2,"2-2"
"241",950,"6306 Riverside/Montopolis","286SB","006306","RIVERSIDE","MONTOPOLIS","AUSTIN",78741,"","Bus Stop","Nearside","Northeast","Active",30.22499591,-97.70312416,"Capital Metro","2017-08-17",2,2,"2-2"
"242",951,"6000 Riverside/Clubview","S1296","006000","RIVERSIDE","CLUBVIEW","AUSTIN",78741,"","Bus Stop","Mid-Block","Northwest","Active",30.22658621,-97.70671096,"Capital Metro","2017-08-17",2,2,"2-2"
"243",953,"1101 Grove (ACC Riverside)","S2023","001101","GROVE","ACC RIVERSIDE TURNOF","AUSTIN",78741,"","Bus Stop","Nearside","Southeast","Active",30.23500809,-97.70417936,"Capital Metro","2017-08-17",2,2,"2-2"
"244",954,"2007 Anderson/Burnet","S1907","002007","ANDERSON","BURNET","AUSTIN",78757,"","Bus Stop","Mid-Block","Southeast","Active",30.35447225,-97.72761642,"Capital Metro","2017-08-17",3,2,"3-2"
"245",956,"Woodrow/Anderson","440SB","001700","ANDERSON","WOODROW","AUSTIN",78757,"","Bus Stop","Nearside","Southwest","Active",30.35245,-97.7234,"Capital Metro","2017-08-17",3,2,"3-2"
"246",958,"Woodrow/Princeton","S2052","007700","WOODROW","PRINCETON","AUSTIN",78757,"","Bus Stop","Nearside","Northwest","Active",30.34988225,-97.7231855,"Capital Metro","2017-08-17",3,2,"3-2"
"247",960,"Woodrow/Richcreek","S2054","007500","WOODROW","RICHCREEK","AUSTIN",78757,"","Bus Stop","Nearside","Northwest","Active",30.34606774,-97.72479881,"Capital Metro","2017-08-17",3,2,"3-2"
"248",962,"7100 Woodrow/Piedmont","S2056","007100","WOODROW","PIEDMONT","AUSTIN",78757,"","Bus Stop","Mid-Block","Southwest","Active",30.34298079,-97.72512362,"Capital Metro","2017-08-17",3,2,"3-2"
"249",963,"7000 Woodrow/Cullen","S2057","007000","WOODROW","CULLEN","AUSTIN",78757,"","Bus Stop","Nearside","Northwest","Active",30.34152179,-97.72590396,"Capital Metro","2017-08-17",3,2,"3-2"
"250",964,"6800 Woodrow/Choquette","S2058","006800","WOODROW","CHOQUETTE","AUSTIN",78757,"","Bus Stop","Nearside","Northwest","Active",30.33920801,-97.72737618,"Capital Metro","2017-08-17",3,2,"3-2"
"251",965,"6600 Woodrow/Brentwood","S2059","006600","WOODROW","BRENTWOOD","AUSTIN",78757,"","Bus Stop","Nearside","Northwest","Active",30.33747935,-97.72846127,"Capital Metro","2017-08-17",3,2,"3-2"
"252",966,"Woodrow/Payne","S2060","006500","WOODROW","PAYNE","AUSTIN",78757,"","Bus Stop","Nearside","Northwest","Active",30.33592323,-97.7294463,"Capital Metro","2017-08-17",3,2,"3-2"
"253",967,"Woodrow/Romeria","S2061","006200","WOODROW","ROMERIA","AUSTIN",78757,"","Bus Stop","Nearside","Northwest","Active",30.33363718,-97.73068234,"Capital Metro","2017-08-17",3,2,"3-2"
"254",968,"5900 Woodrow/Koenig","442SB","005900","WOODROW","KOENIG","AUSTIN",78757,"","Bus Stop","Nearside","Northwest","Active",30.33102405,-97.73160014,"Capital Metro","2017-08-17",3,2,"3-2"
"255",969,"5626 Woodrow/Theckla","S2063","005626","WOODROW","THECKLA","AUSTIN",78756,"","Bus Stop","Farside","Southwest","Active",30.3288663,-97.7329575,"Capital Metro","2017-08-17",3,2,"3-2"
"256",970,"5500 Woodrow/Houston","S2064","005500","WOODROW","HOUSTON","AUSTIN",78756,"","Bus Stop","Nearside","Northwest","Active",30.32646068,-97.73450517,"Capital Metro","2017-08-17",3,2,"3-2"
"257",971,"5300 Woodrow/North Loop","S2065","005300","WOODROW","NORTH LOOP","AUSTIN",78756,"","Bus Stop","Nearside","Northwest","Active",30.32429563,-97.73584927,"Capital Metro","2017-08-17",3,2,"3-2"
"258",972,"5200 Woodrow/North","S2066","005200","WOODROW","NORTH","AUSTIN",78756,"","Bus Stop","Nearside","Northwest","Active",30.32257101,-97.73695461,"Capital Metro","2017-08-17",3,2,"3-2"
"259",973,"1215 51st/Grover","S2067","001215","51ST","GROVER","AUSTIN",78756,"","Bus Stop","Nearside","Southwest","Active",30.32053842,-97.73587302,"Capital Metro","2017-08-17",3,2,"3-2"
"260",974,"1143 49th/Grover","S2068","001143","49TH","GROVER","AUSTIN",78756,"","Bus Stop","Mid-Block","Southeast","Active",30.3185474,-97.73646302,"Capital Metro","2017-08-17",3,2,"3-2"
"261",977,"909 45th/Lamar","S2071","000909","45TH","LAMAR","AUSTIN",78751,"","Bus Stop","Mid-Block","Southeast","Active",30.31298018,-97.7368871,"Capital Metro","2017-08-17",3,2,"3-2"
"262",978,"507 45th/Guadalupe","200EB","000507","45TH","GUADALUPE","AUSTIN",78751,"","Bus Stop","Mid-Block","Southeast","Active",30.31060658,-97.73261795,"Capital Metro","2017-08-17",3,2,"3-2"
"263",979,"301 45th/Avenue C","S2073","000301","45TH","AVENUE C","AUSTIN",78751,"","Bus Stop","Nearside","Southwest","Active",30.30953467,-97.73039186,"Capital Metro","2017-08-17",3,2,"3-2"
"264",980,"Speedway/45th","S2074","004400","SPEEDWAY","45TH","AUSTIN",78751,"","Bus Stop","Farside","Southwest","Active",30.30834951,-97.72867382,"Capital Metro","2017-08-17",3,2,"3-2"
"265",981,"4300 Speedway/43rd","S2075","004300","SPEEDWAY","43RD","AUSTIN",78751,"","Bus Stop","Nearside","Northwest","Active",30.30669688,-97.7297315,"Capital Metro","2017-08-17",3,2,"3-2"
"266",982,"4004 Speedway/40th","S2076","004004","SPEEDWAY","40TH","AUSTIN",78751,"","Bus Stop","Mid-Block","Northwest","Active",30.30349785,-97.73178617,"Capital Metro","2017-08-17",3,2,"3-2"
"267",983,"3812 Speedway/38th Half","S2077","003812","SPEEDWAY","38TH HALF","AUSTIN",78751,"","Bus Stop","Nearside","Northwest","Active",30.30138013,-97.73313232,"Capital Metro","2017-08-17",3,2,"3-2"
"268",985,"3204 Speedway/33rd","S2079","003204","SPEEDWAY","33RD","AUSTIN",78705,"","Bus Stop","Mid-Block","Southwest","Active",30.29713034,-97.7358159,"Capital Metro","2017-08-17",3,2,"3-2"
"269",987,"Speedway/30th","S2081","003000","SPEEDWAY","30TH","AUSTIN",78705,"","Bus Stop","Nearside","Northwest","Active",30.29330204,-97.73601061,"Capital Metro","2017-08-17",3,2,"3-2"
"270",989,"2600 Speedway/Dean Keeton","S2083","002600","SPEEDWAY","DEAN KEETON","AUSTIN",78712,"","Bus Stop","Nearside","Northwest","Active",30.28964991,-97.73687446,"Capital Metro","2017-08-17",3,2,"3-2"
"271",993,"Cesar Chavez/Brazos","131SB","000100","CESAR CHAVEZ","BRAZOS","AUSTIN",78701,"","Bus Stop","Nearside","Southwest","Active",30.26296854,-97.74336455,"Capital Metro","2017-08-17",3,1,"3-1"
"272",995,"515 Cesar Chavez/Red River","S1955","000515","CESAR CHAVEZ","RED RIVER","AUSTIN",78701,"","Bus Stop","Nearside","Southwest","Active",30.26171153,-97.73893225,"Capital Metro","2017-08-17",3,2,"3-2"
"273",999,"Riverside/Summit","S819","001605","RIVERSIDE","SUMMIT","AUSTIN",78741,"","Bus Stop","Mid-Block","Southeast","Active",30.24597606,-97.73183637,"Capital Metro","2017-08-17",3,2,"3-2"
"274",1002,"Riverside/Burton","343SB","002021","RIVERSIDE","BURTON","AUSTIN",78741,"","Bus Stop","Nearside","Southwest","Active",30.24034333,-97.72730939,"Capital Metro","2017-08-17",3,2,"3-2"
"275",1003,"2237 Riverside/Willow Creek","S2085","002237","RIVERSIDE","WILLOW CREEK","AUSTIN",78741,"","Bus Stop","Mid-Block","Northwest","Active",30.23827522,-97.72601453,"Capital Metro","2017-08-17",2,2,"2-2"
"276",1005,"2507 Riverside/Pleasant Valley","S811","002507","RIVERSIDE","PLEASANT VALLEY","AUSTIN",78741,"","Bus Stop","Nearside","Southwest","Active",30.23386704,-97.72375971,"Capital Metro","2017-08-17",2,2,"2-2"
"277",1006,"2104 Pleasant Valley/Willow Hi","S1918","002104","PLEASANT VALLEY","WILLOW HILL","AUSTIN",78741,"","Bus Stop","Mid-Block","Southwest","Active",30.2325987,-97.72468138,"Capital Metro","2017-08-17",2,2,"2-2"
"278",1008,"4411 Oltorf/Huntwick","S2086","004411","OLTORF","HUNTWICK","AUSTIN",78741,"","Bus Stop","Nearside","Southwest","Active",30.22665502,-97.72626337,"Capital Metro","2017-08-17",2,2,"2-2"
"279",1009,"2401 Wickersham/Oltorf","S2087","002401","WICKERSHAM","OLTORF","AUSTIN",78741,"","Bus Stop","Mid-Block","Northeast","Active",30.22603941,-97.72348799,"Capital Metro","2017-08-17",2,2,"2-2"
"280",1010,"Wickersham/Cromwell","S806","002300","WICKERSHAM","CROMWELL","AUSTIN",78741,"","Bus Stop","Nearside","Southeast","Active",30.22702065,-97.72184673,"Capital Metro","2017-08-17",2,2,"2-2"
"281",1011,"2207 Wickersham/Sheringham","S2088","002207","WICKERSHAM","SHERINGHAM","AUSTIN",78741,"","Bus Stop","Nearside","Southeast","Active",30.22931542,-97.7213529,"Capital Metro","2017-08-17",2,2,"2-2"
"282",1012,"2001 Wickersham/Riverside","S801","002001","WICKERSHAM","RIVERSIDE","AUSTIN",78741,"","Bus Stop","Nearside","Southeast","Active",30.23212557,-97.72038347,"Capital Metro","2017-08-17",2,2,"2-2"
"283",1013,"4825 Riverside/Kirksey","S800","004825","RIVERSIDE","KIRKSEY","AUSTIN",78741,"","Bus Stop","Nearside","Southwest","Active",30.23131624,-97.71704143,"Capital Metro","2017-08-17",2,2,"2-2"
"284",1014,"5100 Riverside/Riverside Farms","S798","005100","RIVERSIDE","RIVERSIDE FARMS","AUSTIN",78741,"","Bus Stop","Nearside","Southwest","Active",30.23035471,-97.71464763,"Capital Metro","2017-08-17",2,2,"2-2"
"285",1015,"5401 Riverside/Faro","S795","005401","RIVERSIDE","FARO","AUSTIN",78741,"","Bus Stop","Mid-Block","Southeast","Active",30.22916872,-97.71232414,"Capital Metro","2017-08-17",2,2,"2-2"
"286",1016,"5500 Riverside/Penick","S797","005500","RIVERSIDE","PENICK","AUSTIN",78741,"","Bus Stop","Farside","Southeast","Active",30.22827741,-97.71076569,"Capital Metro","2017-08-17",2,2,"2-2"
"287",1017,"Ruiz Library","S2089","001700","GROVE","FAIRWAY","AUSTIN",78741,"","Bus Stop","Farside","Southwest","Active",30.22953908,-97.70655792,"Capital Metro","2017-08-17",2,2,"2-2"
"288",1018,"Riverside/Faro","S2090","005300","RIVERSIDE","FARO","AUSTIN",78741,"","Bus Stop","Mid-Block","Northwest","Active",30.22983277,-97.71289781,"Capital Metro","2017-08-17",2,2,"2-2"
"289",1020,"4900 Riverside/Crossing Place","S2092","004900","RIVERSIDE","CROSSING PLACE","AUSTIN",78741,"","Bus Stop","Farside","Northwest","Active",30.23136,-97.71637,"Capital Metro","2017-08-17",2,2,"2-2"
"290",1021,"4823 Riverside/Crossing Place","S793","004823","RIVERSIDE","CROSSING PLACE","AUSTIN",78741,"","Bus Stop","Farside","Northwest","Active",30.23192786,-97.71786136,"Capital Metro","2017-08-17",2,2,"2-2"
"291",1022,"2100 Wickersham/Riverside","S802","002100","WICKERSHAM","RIVERSIDE","AUSTIN",78741,"","Bus Stop","Farside","Southwest","Active",30.23152567,-97.72088384,"Capital Metro","2017-08-17",2,2,"2-2"
"292",1023,"Wickersham/Sheringham","S803","002200","WICKERSHAM","SHERINGHAM","AUSTIN",78741,"","Bus Stop","Nearside","Northwest","Active",30.22991387,-97.72149306,"Capital Metro","2017-08-17",2,2,"2-2"
"293",1024,"2300 Wickersham/Cromwell","S805","002300","WICKERSHAM","CROMWELL","AUSTIN",78741,"","Bus Stop","Nearside","Northwest","Active",30.22753384,-97.72173054,"Capital Metro","2017-08-17",2,2,"2-2"
"294",1025,"2440 Wickersham/Oltorf","S808","002440","WICKERSHAM","OLTORF","AUSTIN",78741,"","Bus Stop","Nearside","Northwest","Active",30.22608309,-97.72378369,"Capital Metro","2017-08-17",2,2,"2-2"
"295",1027,"2433 Pleasant Valley/Oltorf","S3266","002433","PLEASANT VALLEY","OLTORF","AUSTIN",78741,"","Bus Stop","Mid-Block","Northeast","Active",30.22802764,-97.72724125,"Capital Metro","2017-08-17",2,2,"2-2"
"296",1028,"2209 Pleasant Valley/Sheringha","S810","002209","PLEASANT VALLEY","SHERINGHAM","AUSTIN",78741,"","Bus Stop","Nearside","Southeast","Active",30.23109722,-97.72529941,"Capital Metro","2017-08-17",2,2,"2-2"
"297",1029,"2426 Riverside/Pleasant Valley","S2093","002426","RIVERSIDE","PLEASANT VALLEY","AUSTIN",78741,"","Bus Stop","Mid-Block","Northwest","Active",30.23570621,-97.72436986,"Capital Metro","2017-08-17",2,2,"2-2"
"298",1030,"Riverside/Willow Creek","S813","002308","RIVERSIDE","WILLOW CREEK","AUSTIN",78741,"","Bus Stop","Mid-Block","Northeast","Active",30.23806534,-97.72563476,"Capital Metro","2017-08-17",2,2,"2-2"
"299",1032,"Riverside/Town Creek","S2094","002000","RIVERSIDE","TOWN CREEK","AUSTIN",78741,"","Bus Stop","Nearside","Southeast","Active",30.24114044,-97.72759139,"Capital Metro","2017-08-17",3,2,"3-2"
"300",1033,"Riverside/Shore District","S2095","001800","RIVERSIDE","SHORE DISTRICT","AUSTIN",78741,"","Bus Stop","Nearside","Southeast","Active",30.24286799,-97.72888897,"Capital Metro","2017-08-17",3,2,"3-2"
"301",1034,"1600 Riverside/Summit","S2096","001600","RIVERSIDE","SUMMIT","AUSTIN",78741,"","Bus Stop","Nearside","Northeast","Active",30.24650527,-97.73196915,"Capital Metro","2017-08-17",3,2,"3-2"
"302",1038,"400 Cesar Chavez/Trinity","S2007","000400","CESAR CHAVEZ","TRINITY","AUSTIN",78701,"","Bus Stop","Nearside","Northeast","Temporarily Clo",30.26246,-97.74084,"Capital Metro","2017-08-17",3,1,"3-1"
"303",1042,"2231 Guadalupe/West Mall UT","S18","002231","GUADALUPE","WEST MALL UT","AUSTIN",78712,"","Bus Stop","Nearside","Southeast","Active",30.28573602,-97.74159943,"Capital Metro","2017-08-17",3,1,"3-1"
"304",1046,"3005 Speedway/San Jacinto","S2102","003005","SPEEDWAY","SAN JACINTO","AUSTIN",78705,"","Bus Stop","Mid-Block","Northeast","Active",30.29347,-97.7356,"Capital Metro","2017-08-17",3,2,"3-2"
"305",1049,"Speedway/35th","S2105","003400","SPEEDWAY","35TH","AUSTIN",78705,"","Bus Stop","Nearside","Southeast","Active",30.29921721,-97.73434115,"Capital Metro","2017-08-17",3,2,"3-2"
"306",1051,"Speedway/39th","S2107","003800","SPEEDWAY","39TH","AUSTIN",78751,"","Bus Stop","Nearside","Southeast","Active",30.30159062,-97.73282536,"Capital Metro","2017-08-17",3,2,"3-2"
"307",1053,"4301 Speedway/43rd","S2109","004301","SPEEDWAY","43RD","AUSTIN",78751,"","Bus Stop","Farside","Northeast","Active",30.30661566,-97.72961587,"Capital Metro","2017-08-17",3,2,"3-2"
"308",1054,"108 45th Street/Avenue D","S2110","000108","45TH","AVENUE D","AUSTIN",78751,"","Bus Stop","Nearside","Northeast","Active",30.30911167,-97.72923512,"Capital Metro","2017-08-17",3,2,"3-2"
"309",1055,"408 45th Street/Avenue A","S2111","000408","45TH","AVENUE A","AUSTIN",78751,"","Bus Stop","Nearside","Northeast","Active",30.31042454,-97.73187799,"Capital Metro","2017-08-17",3,2,"3-2"
"310",1056,"636 45th/Guadalupe","200WB","000636","45TH","GUADALUPE","AUSTIN",78751,"","Bus Stop","Farside","Northwest","Active",30.31124997,-97.73346844,"Capital Metro","2017-08-17",3,2,"3-2"
"311",1057,"918 45th/Lamar","S2112","000918","45TH","LAMAR","AUSTIN",78751,"","Bus Stop","Nearside","Northeast","Active",30.31339739,-97.73724515,"Capital Metro","2017-08-17",3,2,"3-2"
"312",1058,"Sunshine Station (NB)","S2113","004701","SUNSHINE","LAMAR","AUSTIN",78756,"","Rapid Station","Mid-Block","Northeast","Active",30.31643357,-97.73571666,"Capital Metro","2017-08-17",3,2,"3-2"
"313",1059,"4801 Sunshine (Criss Cole Reha","S2114","004801","SUNSHINE","49TH","AUSTIN",78756,"","Bus Stop","Nearside","Southeast","Active",30.31738238,-97.7351142,"Capital Metro","2017-08-17",3,2,"3-2"
"314",1060,"1100 49th/Grover","S2115","001100","49TH","GROVER","AUSTIN",78756,"","Bus Stop","Nearside","Northeast","Active",30.31879072,-97.73664678,"Capital Metro","2017-08-17",3,2,"3-2"
"315",1061,"1200 51st/Grover","S2116","001200","51ST","GROVER","AUSTIN",78756,"","Bus Stop","Mid-Block","Northwest","Active",30.32070687,-97.73598895,"Capital Metro","2017-08-17",3,2,"3-2"
"316",1062,"5113 Woodrow/North","S2117","005113","WOODROW","NORTH","AUSTIN",78756,"","Bus Stop","Nearside","Southeast","Active",30.32237096,-97.73689186,"Capital Metro","2017-08-17",3,2,"3-2"
"317",1063,"5223 Woodrow/North Loop","S2118","005223","WOODROW","NORTH LOOP","AUSTIN",78756,"","Bus Stop","Nearside","Southeast","Active",30.32406065,-97.73582418,"Capital Metro","2017-08-17",3,2,"3-2"
"318",1064,"5413 Woodrow/Houston","S2119","005413","WOODROW","HOUSTON","AUSTIN",78756,"","Bus Stop","Nearside","Southeast","Active",30.32618619,-97.73448199,"Capital Metro","2017-08-17",3,2,"3-2"
"319",1065,"5515 Woodrow/Houston","S2120","005515","WOODROW","HOUSTON","AUSTIN",78756,"","Bus Stop","Mid-Block","Northeast","Active",30.32756476,-97.73360277,"Capital Metro","2017-08-17",3,2,"3-2"
"320",1066,"5701 Woodrow/Theckla","S2121","005701","WOODROW","THECKLA","AUSTIN",78756,"","Bus Stop","Farside","Northeast","Active",30.32903418,-97.73267274,"Capital Metro","2017-08-17",3,2,"3-2"
"321",1067,"5819 Woodrow/Koenig","442NB","005819","WOODROW","KOENIG","AUSTIN",78756,"","Bus Stop","Nearside","Southeast","Active",30.33073718,-97.73157978,"Capital Metro","2017-08-17",3,2,"3-2"
"322",1068,"Woodrow/Alguno","S2123","006100","WOODROW","ALGUNO","AUSTIN",78757,"","Bus Stop","Mid-Block","Northeast","Active",30.33281105,-97.73068243,"Capital Metro","2017-08-17",3,2,"3-2"
"323",1069,"Woodrow/Alegria","S2124","006300","WOODROW","ALEGRIA","AUSTIN",78757,"","Bus Stop","Mid-Block","Northeast","Active",30.33457267,-97.730128,"Capital Metro","2017-08-17",3,2,"3-2"
"324",1070,"6523 Woodrow/Brentwood","S2125","006523","WOODROW","BRENTWOOD","AUSTIN",78757,"","Bus Stop","Nearside","Southeast","Active",30.33727905,-97.72841998,"Capital Metro","2017-08-17",3,2,"3-2"
"325",1072,"Woodrow/Dwyce","S2127","006800","WOODROW","DWYCE","AUSTIN",78757,"","Bus Stop","Mid-Block","Northeast","Active",30.34017063,-97.72659391,"Capital Metro","2017-08-17",3,2,"3-2"
"326",1074,"7115 Woodrow/Piedmont","S2129","007115","WOODROW","PIEDMONT","AUSTIN",78757,"","Bus Stop","Nearside","Southeast","Active",30.34284937,-97.7249844,"Capital Metro","2017-08-17",3,2,"3-2"
"327",1075,"Woodrow/Pasadena","S2130","007300","WOODROW","PASADENA","AUSTIN",78757,"","Bus Stop","Nearside","Southeast","Active",30.34497706,-97.72520981,"Capital Metro","2017-08-17",3,2,"3-2"
"328",1076,"Woodrow/Morrow","S2131","007500","WOODROW","MORROW","AUSTIN",78757,"","Bus Stop","Nearside","Southeast","Active",30.34742954,-97.7237609,"Capital Metro","2017-08-17",3,2,"3-2"
"329",1077,"7717 Woodrow/Princeton","S2132","007717","WOODROW","PRINCETON","AUSTIN",78757,"","Bus Stop","Nearside","Northeast","Active",30.34989,-97.72302,"Capital Metro","2017-08-17",3,2,"3-2"
"330",1078,"1700 Anderson/Wooten Park","440NB","001700","ANDERSON","WOOTEN PARK","AUSTIN",78757,"","Bus Stop","Mid-Block","Northwest","Active",30.35279,-97.72362,"Capital Metro","2017-08-17",3,2,"3-2"
"331",1080,"Anderson/Mullen","S1939","001900","ANDERSON","MULLEN","AUSTIN",78757,"","Bus Stop","Farside","Northwest","Active",30.35401,-97.72622,"Capital Metro","2017-08-17",3,2,"3-2"
"332",1084,"4000 Tannehill/Jackie Robinson","S1302","004000","TANNEHILL","JACKIE ROBINSON","AUSTIN",78721,"","Bus Stop","Nearside","Northwest","Active",30.27639021,-97.6760333,"Capital Metro","2017-08-17",3,3,"3-3"
"333",1085,"Jackie Robinson/Delano","S1297","005500","JACKIE ROBINSON","DELANO","AUSTIN",78721,"","Bus Stop","Nearside","Northeast","Active",30.27658795,-97.67834978,"Capital Metro","2017-08-17",3,3,"3-3"
"334",1086,"1200 Delano/Hudson","S1313","001200","DELANO","HUDSON","AUSTIN",78721,"","Bus Stop","Nearside","Northwest","Active",30.27344,-97.67808,"Capital Metro","2017-08-17",3,3,"3-3"
"335",1087,"Hudson/Eleanor","S1315","001200","ELEANOR","HUDSON","AUSTIN",78721,"","Bus Stop","Farside","Northeast","Active",30.2739803,-97.67935962,"Capital Metro","2017-08-17",3,3,"3-3"
"336",1088,"1307 Fort Branch/Eleanor","S1317","001307","FORT BRANCH","ELEANOR","AUSTIN",78721,"","Bus Stop","Mid-Block","Northeast","Active",30.2770678,-97.68009245,"Capital Metro","2017-08-17",3,2,"3-2"
"337",1089,"1420 Webberville/Fort Branch","S1320","001420","WEBBERVILLE","FORT BRANCH","AUSTIN",78721,"","Bus Stop","Farside","Northwest","Active",30.27988973,-97.6810631,"Capital Metro","2017-08-17",3,2,"3-2"
"338",1090,"Webberville/Ribbecke","S1322","001308","WEBBERVILLE","RIBBECKE","AUSTIN",78721,"","Bus Stop","Farside","Northwest","Active",30.27925504,-97.68319592,"Capital Metro","2017-08-17",3,2,"3-2"
"339",1091,"12th/Webberville","S1324","004700","12TH","WEBBERVILLE","AUSTIN",78721,"","Bus Stop","Farside","Northwest","Active",30.27836074,-97.68547808,"Capital Metro","2017-08-17",3,2,"3-2"
"340",1092,"4600 12th/Springdale","382WB","004600","12TH","SPRINGDALE","AUSTIN",78721,"","Bus Stop","Nearside","Northeast","Active",30.27894118,-97.68668153,"Capital Metro","2017-08-17",3,2,"3-2"
"341",1093,"12th/Cometa","S1327","004100","12TH","COMETA","AUSTIN",78721,"","Bus Stop","Nearside","Northeast","Active",30.27863882,-97.68953847,"Capital Metro","2017-08-17",3,2,"3-2"
"342",1094,"3522 12th/E M Franklin","S1330","003522","12TH","E M FRANKLIN","AUSTIN",78721,"","Bus Stop","Nearside","Northeast","Active",30.27786394,-97.69446136,"Capital Metro","2017-08-17",3,2,"3-2"
"343",1096,"3250 12th/Airport","76WB","003250","12TH","AIRPORT","AUSTIN",78721,"","Bus Stop","Nearside","Northeast","Active",30.27697755,-97.70017774,"Capital Metro","2017-08-17",3,2,"3-2"
"344",1097,"3100 12th/McKinley","S1335","003100","12TH","MCKINLEY","AUSTIN",78702,"","Bus Stop","Nearside","Northeast","Active",30.27665389,-97.70225759,"Capital Metro","2017-08-17",3,2,"3-2"
"345",1098,"12th/Harvey","S1338","002900","12TH","HARVEY","AUSTIN",78702,"","Bus Stop","Nearside","Northeast","Active",30.27634559,-97.70423973,"Capital Metro","2017-08-17",3,2,"3-2"
"346",1099,"2900 12th/Alexander","S1340","002900","12TH","ALEXANDER","AUSTIN",78702,"","Bus Stop","Nearside","Northeast","Active",30.27572262,-97.7080935,"Capital Metro","2017-08-17",3,2,"3-2"
"347",1100,"2730 12th/New York","S2141","002730","12TH","NEW YORK","AUSTIN",78702,"","Bus Stop","Mid-Block","Northeast","Active",30.27535093,-97.71046363,"Capital Metro","2017-08-17",3,2,"3-2"
"348",1101,"12th/Cedar","S1345","002500","12TH","CEDAR","AUSTIN",78702,"","Bus Stop","Mid-Block","Northwest","Active",30.27487928,-97.71339943,"Capital Metro","2017-08-17",3,2,"3-2"
"349",1102,"2204 12th/Chestnut","S1347","002204","12TH","CHESTNUT","AUSTIN",78702,"","Bus Stop","Mid-Block","Northwest","Active",30.27438978,-97.71648558,"Capital Metro","2017-08-17",3,2,"3-2"
"350",1103,"2000 12th/Poquito","S1348","002000","12TH","POQUITO","AUSTIN",78702,"","Bus Stop","Nearside","Northeast","Active",30.27400412,-97.71885114,"Capital Metro","2017-08-17",3,2,"3-2"
"351",1105,"1700 12th/Leona","S2142","001700","12TH","LEONA","AUSTIN",78702,"","Bus Stop","Nearside","Northeast","Active",30.27352067,-97.72186954,"Capital Metro","2017-08-17",3,2,"3-2"
"352",1106,"1400 12th/Angelina","S1354","001400","12TH","ANGELINA","AUSTIN",78702,"","Bus Stop","Nearside","Northeast","Active",30.2730592,-97.72490042,"Capital Metro","2017-08-17",3,2,"3-2"
"353",1107,"1220 12th/San Bernard","S1357","001220","12TH","SAN BERNARD","AUSTIN",78702,"","Bus Stop","Farside","Northwest","Active",30.27272693,-97.72684425,"Capital Metro","2017-08-17",3,2,"3-2"
"354",1108,"12th/Waller","S1360","001000","12TH","WALLER","AUSTIN",78702,"","Bus Stop","Farside","Northwest","Active",30.27235282,-97.72923304,"Capital Metro","2017-08-17",3,2,"3-2"
"355",1109,"12th/IH-35","S2143","000900","12TH","BRANCH","AUSTIN",78702,"","Bus Stop","Nearside","Northeast","Active",30.27208786,-97.73084211,"Capital Metro","2017-08-17",3,2,"3-2"
"356",1113,"12th/Branch","S2134","000800","12TH","BRANCH","AUSTIN",78702,"","Bus Stop","Nearside","Southwest","Active",30.27188586,-97.7313058,"Capital Metro","2017-08-17",3,2,"3-2"
"357",1114,"12th/Navasota","S1358","001100","12TH","NAVASOTA","AUSTIN",78702,"","Bus Stop","Nearside","Southwest","Active",30.2724335,-97.72784404,"Capital Metro","2017-08-17",3,2,"3-2"
"358",1118,"1819 12th/Chicon","133EB","001819","12TH","CHICON","AUSTIN",78702,"","Bus Stop","Nearside","Southwest","Active",30.27369504,-97.72000133,"Capital Metro","2017-08-17",3,2,"3-2"
"359",1121,"2601 12th/Cedar","S1344","002601","12TH","CEDAR","AUSTIN",78702,"","Bus Stop","Farside","Southeast","Active",30.27481476,-97.7128459,"Capital Metro","2017-08-17",3,2,"3-2"
"360",1122,"2733 12th/New York","S2135","002733","12TH","NEW YORK","AUSTIN",78702,"","Bus Stop","Mid-Block","Southeast","Active",30.27520264,-97.71044057,"Capital Metro","2017-08-17",3,2,"3-2"
"361",1123,"2863 12th/Alexander","S1341","002863","12TH","ALEXANDER","AUSTIN",78702,"","Bus Stop","Nearside","Southwest","Active",30.2755333,-97.70834872,"Capital Metro","2017-08-17",3,2,"3-2"
"362",1124,"2917 12th/Hargrave","S2136","002917","12TH","HARGRAVE","AUSTIN",78702,"","Bus Stop","Mid-Block","Southeast","Active",30.27586802,-97.70634273,"Capital Metro","2017-08-17",3,2,"3-2"
"363",1125,"3021 12th/McKinley","S1336","003021","12TH","MCKINLEY","AUSTIN",78702,"","Bus Stop","Nearside","Southwest","Active",30.27647396,-97.70236257,"Capital Metro","2017-08-17",3,2,"3-2"
"364",1126,"3245 12th/Airport","76EB","003245","12TH","AIRPORT","AUSTIN",78702,"","Bus Stop","Nearside","Southwest","Active",30.27673092,-97.70054738,"Capital Metro","2017-08-17",3,2,"3-2"
"365",1127,"3403 12th/Greenwood","S1332","003403","12TH","GREENWOOD","AUSTIN",78721,"","Bus Stop","Farside","Southeast","Active",30.277301,-97.69708502,"Capital Metro","2017-08-17",3,2,"3-2"
"366",1128,"3525 12th/E M Franklin","S1329","003525","12TH","E M FRANKLIN","AUSTIN",78721,"","Bus Stop","Nearside","Southwest","Active",30.2777222,-97.69440216,"Capital Metro","2017-08-17",3,2,"3-2"
"367",1130,"1201 Webberville/12th","S1323","001201","WEBBERVILLE","12TH","AUSTIN",78721,"","Bus Stop","Farside","Northeast","Active",30.27828241,-97.68454407,"Capital Metro","2017-08-17",3,2,"3-2"
"368",1131,"1401 Webberville/Ribbecke","S2137","001401","WEBBERVILLE","RIBBECKE","AUSTIN",78721,"","Bus Stop","Nearside","Southwest","Active",30.27940646,-97.68261441,"Capital Metro","2017-08-17",3,2,"3-2"
"369",1132,"1419 Webberville/Fort Branch","S1319","001419","WEBBERVILLE","FORT BRANCH","AUSTIN",78721,"","Bus Stop","Nearside","Southwest","Active",30.27974431,-97.68096592,"Capital Metro","2017-08-17",3,2,"3-2"
"370",1133,"1302 Fort Branch/Eleanor","S1301","001302","FORT BRANCH","ELEANOR","AUSTIN",78721,"","Bus Stop","Nearside","Northwest","Active",30.27693004,-97.68022174,"Capital Metro","2017-08-17",3,2,"3-2"
"371",1134,"Eleanor/Hudson","S1316","005500","HUDSON","ELEANOR","AUSTIN",78721,"","Bus Stop","Farside","Southeast","Active",30.27374354,-97.67907367,"Capital Metro","2017-08-17",3,3,"3-3"
"372",1135,"1201 Delano/Hudson","S1314","001201","DELANO","HUDSON","AUSTIN",78721,"","Bus Stop","Farside","Northeast","Active",30.27342326,-97.67792853,"Capital Metro","2017-08-17",3,3,"3-3"
"373",1137,"3811 Tannehill/Jackie Robinson","S1310","003811","TANNEHILL","JACKIE ROBINSON","AUSTIN",78721,"","Bus Stop","Farside","Northeast","Active",30.27658368,-97.67569696,"Capital Metro","2017-08-17",3,3,"3-3"
"374",1138,"4021 Tannehill/Samuel Huston","397EB","004021","TANNEHILL","SAMUEL HUSTON","AUSTIN",78721,"","Bus Stop","Nearside","Southeast","Active",30.27919211,-97.67397735,"Capital Metro","2017-08-17",3,3,"3-3"
"375",1140,"Aberdeen/Rundberg","68","009400","ABERDEEN","RUNDBERG","AUSTIN",78753,"","Bus Stop","Nearside","Northwest","Active",30.35293164,-97.67880257,"Capital Metro","2017-08-17",3,3,"3-3"
"376",1141,"1200 Rundberg/Teasdale","S2145","001200","RUNDBERG","TEASDALE","AUSTIN",78753,"","Bus Stop","Nearside","Northeast","Active",30.3541105,-97.68128869,"Capital Metro","2017-08-17",3,2,"3-2"
"377",1142,"Rundberg/Hansford","S2146","001007","RUNDBERG","HANSFORD","AUSTIN",78753,"","Bus Stop","Nearside","Northeast","Active",30.35563691,-97.68363034,"Capital Metro","2017-08-17",3,2,"3-2"
"378",1143,"838 Rundberg/Middle Fiskville","S2147","000838","RUNDBERG","MIDDLE FISKVILLE","AUSTIN",78753,"","Bus Stop","Nearside","Northeast","Active",30.3572187,-97.68599816,"Capital Metro","2017-08-17",3,2,"3-2"
"379",1148,"Georgian/Home Pl.","S2152","008900","GEORGIAN","HOME","AUSTIN",78753,"","Bus Stop","Nearside","Northwest","Active",30.35583224,-97.6964738,"Capital Metro","2017-08-17",3,2,"3-2"
"380",1149,"Georgian/Elliott","S2153","008700","GEORGIAN","ELLIOTT","AUSTIN",78753,"","Bus Stop","Nearside","Northwest","Active",30.3532888,-97.69904159,"Capital Metro","2017-08-17",3,2,"3-2"
"381",1150,"Georgian/Jennifer","S2154","008314","GEORGIAN","JENNIFER","AUSTIN",78753,"","Bus Stop","Nearside","Northwest","Active",30.34975203,-97.70201552,"Capital Metro","2017-08-17",3,2,"3-2"
"382",1151,"Georgian/Powell","S2155","008200","GEORGIAN","POWELL","AUSTIN",78753,"","Bus Stop","Nearside","Northwest","Active",30.34769706,-97.70323417,"Capital Metro","2017-08-17",3,2,"3-2"
"383",1152,"8000 Georgian/Anderson","S2156","008000","GEORGIAN","ANDERSON","AUSTIN",78753,"","Bus Stop","Nearside","Northwest","Active",30.34490167,-97.70465949,"Capital Metro","2017-08-17",3,2,"3-2"
"384",1153,"7700 Northcrest/Anderson","S2157","007700","NORTHCREST","ANDERSON","AUSTIN",78752,"","Bus Stop","Mid-Block","Southwest","Active",30.34336011,-97.70587812,"Capital Metro","2017-08-17",3,2,"3-2"
"385",1156,"Crestland/Meadowview","S2160","000400","CRESTLAND","MEADOWVIEW","AUSTIN",78752,"","Bus Stop","Nearside","Northeast","Active",30.33968147,-97.71176144,"Capital Metro","2017-08-17",3,2,"3-2"
"386",1157,"7414 Guadalupe/Crestland","S2161","007414","GUADALUPE","CRESTLAND","AUSTIN",78752,"","Bus Stop","Mid-Block","Southwest","Active",30.33990075,-97.71314562,"Capital Metro","2017-08-17",3,2,"3-2"
"387",1158,"7106 Guadalupe/St Johns","S2162","007106","GUADALUPE","ST JOHNS","AUSTIN",78752,"","Bus Stop","Farside","Southwest","Active",30.33732433,-97.71483329,"Capital Metro","2017-08-17",3,2,"3-2"
"388",1159,"Guadalupe/Swanee","S2163","007000","GUADALUPE","SWANEE","AUSTIN",78752,"","Bus Stop","Nearside","Northwest","Active",30.33570456,-97.71590286,"Capital Metro","2017-08-17",3,2,"3-2"
"389",1160,"105 Highland Mall/Jonathan","209EB","000105","HIGHLAND MALL","JONATHAN","AUSTIN",78752,"","Bus Stop","Nearside","Southwest","Active",30.3284914,-97.71360404,"Capital Metro","2017-08-17",3,2,"3-2"
"390",1161,"SW - Highland Mall/Middle Fisk","S2164","000700","HIGHLAND MALL","MIDDLE FISKVILLE","AUSTIN",78752,"","Bus Stop","Nearside","Southwest","Active",30.32623904,-97.70875153,"Capital Metro","2017-08-17",3,2,"3-2"
"391",1162,"6200 Middle Fiskville/Tirado","S2165","006200","MIDDLE FISKVILLE","TIRADO","AUSTIN",78752,"","Bus Stop","Nearside","Northwest","Active",30.32428622,-97.7097412,"Capital Metro","2017-08-17",3,2,"3-2"
"392",1163,"6000 Middle Fiskville/Clayton","S2166","006000","MIDDLE FISKVILLE","CLAYTON","AUSTIN",78752,"","Bus Stop","Nearside","Northwest","Active",30.3227544,-97.71075087,"Capital Metro","2017-08-17",3,2,"3-2"
"393",1164,"5600 Avenue F/56th","S2167","005600","AVENUE F","56TH","AUSTIN",78751,"","Bus Stop","Nearside","Northwest","Active",30.32116747,-97.71899609,"Capital Metro","2017-08-17",3,2,"3-2"
"394",1167,"303 53rd/Avenue G","S2170","000303","53RD","AVENUE G","AUSTIN",78751,"","Bus Stop","Farside","Southeast","Active",30.3170906,-97.72011399,"Capital Metro","2017-08-17",3,2,"3-2"
"395",1168,"Duval/51st","S2171","005100","DUVAL","51ST","AUSTIN",78751,"","Bus Stop","Nearside","Northwest","Active",30.31436241,-97.71992247,"Capital Metro","2017-08-17",3,2,"3-2"
"396",1169,"Duval/48th","S2172","004800","DUVAL","48TH","AUSTIN",78751,"","Bus Stop","Nearside","Northwest","Active",30.31096778,-97.72212947,"Capital Metro","2017-08-17",3,2,"3-2"
"397",1171,"Duval/43rd","S2174","004230","DUVAL","43RD","AUSTIN",78751,"","Bus Stop","Farside","Southwest","Active",30.3043804,-97.72635662,"Capital Metro","2017-08-17",3,2,"3-2"
"398",1172,"4002 Duval/41st","S2175","004002","DUVAL","41ST","AUSTIN",78751,"","Bus Stop","Mid-Block","Southwest","Active",30.30167363,-97.7280381,"Capital Metro","2017-08-17",3,2,"3-2"
"399",1174,"Duval/33rd","S2177","003300","DUVAL","33RD","AUSTIN",78705,"","Bus Stop","Nearside","Northwest","Active",30.29564931,-97.7318316,"Capital Metro","2017-08-17",3,2,"3-2"
"400",1175,"3200 Duval/32nd","S2178","003200","DUVAL","32ND","AUSTIN",78705,"","Bus Stop","Nearside","Northwest","Active",30.29460292,-97.73249546,"Capital Metro","2017-08-17",3,2,"3-2"
"401",1176,"Duval/30th","S2179","003000","DUVAL","30TH","AUSTIN",78705,"","Bus Stop","Nearside","Northwest","Active",30.29187628,-97.73422195,"Capital Metro","2017-08-17",3,2,"3-2"
"402",1177,"San Jacinto/Dean Keeton NW Cor","S2180","002600","SAN JACINTO","DEAN KEETON","AUSTIN",78705,"","Bus Stop","Nearside","Northwest","Active",30.28959901,-97.73468563,"Capital Metro","2017-08-17",3,2,"3-2"
"403",1178,"2400 San Jacinto/24th","S2181","002400","SAN JACINTO","24TH","AUSTIN",78705,"","Bus Stop","Nearside","Northwest","Active",30.28725379,-97.73366255,"Capital Metro","2017-08-17",3,2,"3-2"
"404",1179,"2300 San Jacinto/23rd","S2182","002300","SAN JACINTO","23RD","AUSTIN",78712,"","Bus Stop","Nearside","Northwest","Active",30.28550483,-97.73378262,"Capital Metro","2017-08-17",3,2,"3-2"
"405",1180,"2100 San Jacinto/21st","S2183","002100","SAN JACINTO","21ST","AUSTIN",78712,"","Bus Stop","Nearside","Northwest","Active",30.28336086,-97.73416717,"Capital Metro","2017-08-17",3,2,"3-2"
"406",1181,"1960 San Jacinto/Trinity","S2184","001960","SAN JACINTO","TRINITY","AUSTIN",78712,"","Bus Stop","Mid-Block","Northwest","Active",30.28066082,-97.73389927,"Capital Metro","2017-08-17",3,2,"3-2"
"407",1186,"715 Riverside/Alameda","S881","000715","RIVERSIDE","ALAMEDA","AUSTIN",78704,"","Bus Stop","Nearside","Southwest","Active",30.25073448,-97.74060987,"Capital Metro","2017-08-17",3,1,"3-1"
"408",1187,"1005 East Riverside/Travis Hei","S880","001005","RIVERSIDE","TRAVIS HEIGHTS","AUSTIN",78704,"","Bus Stop","Mid-Block","Southeast","Active",30.2495895,-97.73834798,"Capital Metro","2017-08-17",3,2,"3-2"
"409",1188,"Riverside/Kenwood","S879","001099","RIVERSIDE","KENWOOD","AUSTIN",78704,"","Bus Stop","Nearside","Southwest","Active",30.24859168,-97.73688577,"Capital Metro","2017-08-17",3,2,"3-2"
"410",1190,"1724 Burton/Woodland","S825","001724","BURTON","WOODLAND","AUSTIN",78741,"","Bus Stop","Nearside","Northwest","Active",30.23615221,-97.72845884,"Capital Metro","2017-08-17",2,2,"2-2"
"411",1191,"1920 Burton/Mariposa","S886","001920","BURTON","MARIPOSA","AUSTIN",78741,"","Bus Stop","Nearside","Northwest","Active",30.23386117,-97.731812,"Capital Metro","2017-08-17",2,2,"2-2"
"412",1193,"2310 Parker/Oltorf","S847","002310","PARKER","OLTORF","AUSTIN",78741,"","Bus Stop","Mid-Block","Southwest","Active",30.23187412,-97.73728541,"Capital Metro","2017-08-17",2,2,"2-2"
"413",1194,"2504 Parker/Braxton","S2185","002504","PARKER","BRAXTON","AUSTIN",78741,"","Bus Stop","Farside","Southwest","Active",30.22992892,-97.73855666,"Capital Metro","2017-08-17",2,2,"2-2"
"414",1195,"2718 Parker/Royal Hill","S853","002718","PARKER","ROYAL HILL","AUSTIN",78741,"","Bus Stop","Nearside","Northwest","Active",30.22750366,-97.74050515,"Capital Metro","2017-08-17",2,1,"2-1"
"415",1199,"Woodward/Ben White NW Corner","S2187","002000","WOODWARD","BEN WHITE","AUSTIN",78741,"","Bus Stop","Nearside","Northwest","Active",30.21714657,-97.74404159,"Capital Metro","2017-08-17",2,1,"2-1"
"416",1202,"Freidrich/Directors","S860","004190","FREIDRICH","DIRECTORS","AUSTIN",78744,"","Bus Stop","Nearside","Northwest","Active",30.21249276,-97.74820863,"Capital Metro","2017-08-17",2,1,"2-1"
"417",1203,"4600 Freidrich/St Elmo","S870","004600","FREIDRICH","ST ELMO","AUSTIN",78744,"","Bus Stop","Mid-Block","Southwest","Active",30.20818275,-97.75090758,"Capital Metro","2017-08-17",2,1,"2-1"
"418",1204,"Teri/Freidrich","S859","001900","TERI","FREIDRICH","AUSTIN",78744,"","Bus Stop","Mid-Block","Southeast","Active",30.20283061,-97.75347223,"Capital Metro","2017-08-17",2,1,"2-1"
"419",1206,"5110 Peppertree/Palmera","S844","005110","PEPPERTREE","PALMERA","AUSTIN",78744,"","Bus Stop","Nearside","Northwest","Active",30.20011952,-97.75201631,"Capital Metro","2017-08-17",2,1,"2-1"
"420",1207,"5502 Peppertree/Peach","S835","005502","PEPPERTREE","PEACH","AUSTIN",78744,"","Bus Stop","Farside","Southwest","Active",30.19618795,-97.75321593,"Capital Metro","2017-08-17",2,1,"2-1"
"421",1208,"Peppertree/Stassney","S830","005600","PEPPERTREE","STASSNEY","AUSTIN",78744,"","Bus Stop","Nearside","Northwest","Active",30.19362402,-97.75254817,"Capital Metro","2017-08-17",2,1,"2-1"
"422",1212,"5406 Pleasant Valley/Village","S160","005406","PLEASANT VALLEY","VILLAGE","AUSTIN",78744,"","Bus Stop","Nearside","Northwest","Active",30.19328864,-97.7447429,"Capital Metro","2017-08-17",2,1,"2-1"
"423",1213,"5802 Pleasant Valley/Leatherle","S2189","005802","PLEASANT VALLEY","LEATHERLEAF","AUSTIN",78744,"","Bus Stop","Farside","Southwest","Active",30.18888935,-97.74554464,"Capital Metro","2017-08-17",2,1,"2-1"
"424",1214,"6100 Pleasant Valley/Dove Spri","S2190","006100","PLEASANT VALLEY","DOVE SPRINGS","AUSTIN",78744,"","Bus Stop","Mid-Block","Southwest","Active",30.18535838,-97.74564775,"Capital Metro","2017-08-17",2,1,"2-1"
"425",1215,"6406 Pleasant Valley/Creek Ben","S2191","006406","PLEASANT VALLEY","CREEK BEND","AUSTIN",78744,"","Bus Stop","Farside","Southwest","Active",30.18211414,-97.74609676,"Capital Metro","2017-08-17",2,1,"2-1"
"426",1219,"6107 Pleasant Valley/Turnstone","S2198","006107","PLEASANT VALLEY","TURNSTONE","AUSTIN",78744,"","Bus Stop","Nearside","Southeast","Active",30.18519814,-97.745196,"Capital Metro","2017-08-17",2,1,"2-1"
"427",1220,"5803 Pleasant Valley/Village S","S2199","005803","PLEASANT VALLEY","VILLAGE SQUARE","AUSTIN",78744,"","Bus Stop","Farside","Northeast","Active",30.18889119,-97.74529046,"Capital Metro","2017-08-17",2,1,"2-1"
"428",1221,"5505 Pleasant Valley/Palo Blan","S2200","005505","PLEASANT VALLEY","PALO BLANCO","AUSTIN",78744,"","Bus Stop","Mid-Block","Northeast","Active",30.19222924,-97.74449575,"Capital Metro","2017-08-17",2,1,"2-1"
"429",1223,"2522 Stassney/Chaparral","S833","002522","STASSNEY","CHAPARRAL","AUSTIN",78744,"","Bus Stop","Nearside","Northeast","Active",30.19391933,-97.747016,"Capital Metro","2017-08-17",2,1,"2-1"
"430",1224,"2408 Stassney/Palo Blanco","S827","002408","STASSNEY","PALO BLANCO","AUSTIN",78744,"","Bus Stop","Mid-Block","Northwest","Active",30.19371366,-97.75068513,"Capital Metro","2017-08-17",2,1,"2-1"
"431",1226,"Peppertree/Deadwood","S2202","005400","PEPPERTREE","DEADWOOD","AUSTIN",78744,"","Bus Stop","Nearside","Southeast","Active",30.19733532,-97.75271177,"Capital Metro","2017-08-17",2,1,"2-1"
"432",1228,"2008 Teri/Pepper","S857","002008","TERI","PEPPER","AUSTIN",78744,"","Bus Stop","Farside","Northwest","Active",30.20236493,-97.75249923,"Capital Metro","2017-08-17",2,1,"2-1"
"433",1229,"4801 Freidrich/Teri","S877","004801","FREIDRICH","TERI","AUSTIN",78744,"","Bus Stop","Farside","Northeast","Active",30.20446607,-97.75303643,"Capital Metro","2017-08-17",2,1,"2-1"
"434",1230,"4601 Freidrich/City Yard","S2203","004601","FREIDRICH","CITY YARD","AUSTIN",78744,"","Bus Stop","Mid-Block","Northeast","Active",30.20817397,-97.75068392,"Capital Metro","2017-08-17",2,1,"2-1"
"435",1231,"4217 Freidrich/St Elmo","S855","004217","FREIDRICH","ST ELMO","AUSTIN",78744,"","Bus Stop","Mid-Block","Northeast","Active",30.21133464,-97.74870481,"Capital Metro","2017-08-17",2,1,"2-1"
"436",1232,"4115 Freidrich/Woodward","S876","004115","FREIDRICH","WOODWARD","AUSTIN",78744,"","Bus Stop","Nearside","Southwest","Active",30.21348372,-97.74611584,"Capital Metro","2017-08-17",2,1,"2-1"
"437",1233,"Woodward/Ben White SE Corner","S2204","002076","WOODWARD","BEN WHITE","AUSTIN",78744,"","Bus Stop","Nearside","Southeast","Active",30.21508108,-97.74414559,"Capital Metro","2017-08-17",2,1,"2-1"
"438",1235,"1901 Woodward/Parker","318SE","001901","WOODWARD","PARKER","AUSTIN",78741,"","Bus Stop","Nearside","Northeast","Active",30.21945602,-97.74378943,"Capital Metro","2017-08-17",2,1,"2-1"
"439",1237,"3101 Parker/Wickshire","S846","003101","PARKER","WICKSHIRE","AUSTIN",78741,"","Bus Stop","Nearside","Southeast","Active",30.22451719,-97.74215802,"Capital Metro","2017-08-17",2,1,"2-1"
"440",1238,"2801 Parker/Royal Hill","S871","002801","PARKER","ROYAL HILL","AUSTIN",78741,"","Bus Stop","Farside","Northeast","Active",30.22738128,-97.74038665,"Capital Metro","2017-08-17",2,1,"2-1"
"441",1239,"2501 Parker/Braxton","S854","002501","PARKER","BRAXTON","AUSTIN",78741,"","Bus Stop","Nearside","Southeast","Active",30.23014409,-97.73819975,"Capital Metro","2017-08-17",2,2,"2-2"
"442",1240,"2301 Parker/Oltorf","S822","002301","PARKER","OLTORF","AUSTIN",78741,"","Bus Stop","Nearside","Southeast","Active",30.232116,-97.73693377,"Capital Metro","2017-08-17",2,2,"2-2"
"443",1242,"2001 Burton/Mariposa","S1517","002001","BURTON","MARIPOSA","AUSTIN",78741,"","Bus Stop","Nearside","Southeast","Active",30.23341117,-97.73192455,"Capital Metro","2017-08-17",2,2,"2-2"
"444",1243,"Burton/Valley Hill Cir.","S1514","001900","BURTON","VALLEY HILL","AUSTIN",78741,"","Bus Stop","Nearside","Southeast","Active",30.23435995,-97.7307841,"Capital Metro","2017-08-17",2,2,"2-2"
"445",1244,"1801 Burton/Woodland","S1513","001801","BURTON","WOODLAND","AUSTIN",78741,"","Bus Stop","Nearside","Southeast","Active",30.23576406,-97.72851011,"Capital Metro","2017-08-17",2,2,"2-2"
"446",1246,"1000 East Riverside/Travis Hei","S2206","001000","RIVERSIDE","TRAVIS HEIGHTS","AUSTIN",78704,"","Bus Stop","Nearside","Northeast","Active",30.24990589,-97.73859387,"Capital Metro","2017-08-17",3,2,"3-2"
"447",1249,"150 Riverside/Newning","S2209","000150","RIVERSIDE","NEWNING","AUSTIN",78704,"","Bus Stop","Mid-Block","Northwest","Active",30.25586783,-97.74545963,"Capital Metro","2017-08-17",3,1,"3-1"
"448",1253,"2031 San Jacinto/21st","S2210","002031","SAN JACINTO","21ST","AUSTIN",78712,"","Bus Stop","Nearside","Southeast","Active",30.28310386,-97.7339105,"Capital Metro","2017-08-17",3,2,"3-2"
"449",1255,"2329 San Jacinto/24th","S2212","002329","SAN JACINTO","24TH","AUSTIN",78705,"","Bus Stop","Nearside","Southeast","Active",30.28693954,-97.73342677,"Capital Metro","2017-08-17",3,2,"3-2"
"450",1256,"2525 San Jacinto/Dean Keeton","S2213","002525","SAN JACINTO","DEAN KEETON","AUSTIN",78705,"","Bus Stop","Nearside","Southeast","Active",30.28877553,-97.73439725,"Capital Metro","2017-08-17",3,2,"3-2"
"451",1257,"Duval/Bellevue","S2214","003001","DUVAL","BELLEVUE","AUSTIN",78705,"","Bus Stop","Farside","Northeast","Active",30.29212682,-97.73391675,"Capital Metro","2017-08-17",3,2,"3-2"
"452",1258,"Duval/32nd","S2215","003108","DUVAL","32ND","AUSTIN",78705,"","Bus Stop","Mid-Block","Southeast","Active",30.2933836,-97.73310791,"Capital Metro","2017-08-17",3,2,"3-2"
"453",1259,"Duval/Harris","S2216","003305","DUVAL","HARRIS","AUSTIN",78705,"","Bus Stop","Nearside","Southeast","Active",30.29591,-97.73149,"Capital Metro","2017-08-17",3,2,"3-2"
"454",1260,"3717 Duval/38th","S2217","003717","DUVAL","38TH","AUSTIN",78705,"","Bus Stop","Nearside","Southeast","Active",30.29851458,-97.72983139,"Capital Metro","2017-08-17",3,2,"3-2"
"455",1261,"4017 Duval/41st","S2218","004017","DUVAL","41ST","AUSTIN",78751,"","Bus Stop","Nearside","Southeast","Active",30.30213956,-97.72760401,"Capital Metro","2017-08-17",3,2,"3-2"
"456",1262,"Duval/Park","S2219","004206","DUVAL","PARK","AUSTIN",78751,"","Bus Stop","Farside","Northeast","Active",30.30413196,-97.72635771,"Capital Metro","2017-08-17",3,2,"3-2"
"457",1263,"4433 Duval/45th","171SE","004433","DUVAL","45TH","AUSTIN",78751,"","Bus Stop","Nearside","Southeast","Active",30.30689615,-97.72457614,"Capital Metro","2017-08-17",3,2,"3-2"
"458",1264,"4533 Duval/45th","S2221","004533","DUVAL","45TH","AUSTIN",78751,"","Bus Stop","Mid-Block","Northeast","Active",30.30830072,-97.72367774,"Capital Metro","2017-08-17",3,2,"3-2"
"459",1265,"4803 Duval/48th Street","S2222","004803","DUVAL","48TH","AUSTIN",78751,"","Bus Stop","Farside","Northeast","Active",30.31117444,-97.7217894,"Capital Metro","2017-08-17",3,2,"3-2"
"460",1266,"Duval/50th","S2223","004911","DUVAL","50TH","AUSTIN",78751,"","Bus Stop","Nearside","Southeast","Active",30.31302097,-97.7206094,"Capital Metro","2017-08-17",3,2,"3-2"
"461",1267,"Duval/Bruning","S2224","005100","DUVAL","BRUNING","AUSTIN",78751,"","Bus Stop","Farside","Northeast","Active",30.31443508,-97.71969535,"Capital Metro","2017-08-17",3,2,"3-2"
"462",1268,"304 53rd/Avenue H","S2225","000304","53RD","AVENUE H","AUSTIN",78751,"","Bus Stop","Farside","Northwest","Active",30.31701605,-97.71963512,"Capital Metro","2017-08-17",3,2,"3-2"
"463",1271,"5613 Avenue F/Koenig","S2228","005613","AVENUE F","KOENIG","AUSTIN",78751,"","Bus Stop","Nearside","Southeast","Active",30.32159845,-97.71872993,"Capital Metro","2017-08-17",3,2,"3-2"
"464",1273,"6902 Airport Blvd/Guadalupe","S1934","006902","AIRPORT","GUADALUPE","AUSTIN",78752,"","Bus Stop","Mid-Block","Northeast","Active",30.33397668,-97.71681782,"Capital Metro","2017-08-17",3,2,"3-2"
"465",1274,"Guadalupe/Kennistson","S252","006800","GUADALUPE","KENNISTSON","AUSTIN",78752,"","Bus Stop","Nearside","Southeast","Active",30.33469374,-97.71637678,"Capital Metro","2017-08-17",3,2,"3-2"
"466",1275,"7125 Guadalupe/St Johns","S253","007125","GUADALUPE","ST JOHNS","AUSTIN",78752,"","Bus Stop","Nearside","Southeast","Active",30.3376714,-97.71442724,"Capital Metro","2017-08-17",3,2,"3-2"
"467",1276,"7417 Guadalupe/Crestland","S2230","007417","GUADALUPE","CRESTLAND","AUSTIN",78752,"","Bus Stop","Nearside","Southeast","Active",30.33999603,-97.7128983,"Capital Metro","2017-08-17",3,2,"3-2"
"468",1278,"7601 Northcrest/Prairie Dell","S2232","007601","NORTHCREST","PRAIRIE DELL","AUSTIN",78752,"","Bus Stop","Nearside","Southeast","Active",30.34063241,-97.70842089,"Capital Metro","2017-08-17",3,2,"3-2"
"469",1282,"Georgian/Red Oak","S2236","008300","GEORGIAN","RED OAK","AUSTIN",78753,"","Bus Stop","Farside","Northeast","Active",30.34949385,-97.70200595,"Capital Metro","2017-08-17",3,2,"3-2"
"470",1283,"Georgian/Walnut","S2237","008504","GEORGIAN","WALNUT","AUSTIN",78753,"","Bus Stop","Farside","Northeast","Active",30.35129654,-97.70050905,"Capital Metro","2017-08-17",3,2,"3-2"
"471",1284,"Georgian/Little Walnut","S2238","008700","GEORGIAN","LITTLE WALNUT","AUSTIN",78753,"","Bus Stop","Farside","Northeast","Active",30.35343063,-97.69872809,"Capital Metro","2017-08-17",3,2,"3-2"
"472",1285,"Georgian/Home Place","S2239","008800","GEORGIAN","HOME","AUSTIN",78753,"","Bus Stop","Mid-Block","Northeast","Active",30.35600916,-97.69616945,"Capital Metro","2017-08-17",3,2,"3-2"
"473",1286,"9013 Georgian/Fawnridge","S2240","009013","GEORGIAN","FAWNRIDGE","AUSTIN",78753,"","Bus Stop","Nearside","Southeast","Active",30.3581216,-97.69480892,"Capital Metro","2017-08-17",3,2,"3-2"
"474",1288,"9309 Georgian/Rundberg","188SE","009309","GEORGIAN","RUNDBERG","AUSTIN",78753,"","Bus Stop","Nearside","Southeast","Active",30.36056526,-97.69349563,"Capital Metro","2017-08-17",4,2,"4-2"
"475",1289,"307 Rundberg/North Creek","S771","000307","RUNDBERG","NORTH CREEK","AUSTIN",78753,"","Bus Stop","Nearside","Southwest","Active",30.36003935,-97.69202708,"Capital Metro","2017-08-17",4,2,"4-2"
"476",1290,"829 Rundberg/Middle Fiskville","S2244","000829","RUNDBERG","MIDDLE FISKVILLE","AUSTIN",78753,"","Bus Stop","Nearside","Southwest","Active",30.35738494,-97.68666273,"Capital Metro","2017-08-17",3,2,"3-2"
"477",1307,"1041 St Johns/Meador","S1429","001041","ST JOHNS","MEADOR","AUSTIN",78752,"","Bus Stop","Nearside","Southwest","Active",30.32904,-97.69637,"Capital Metro","2017-08-17",3,2,"3-2"
"478",1308,"1127 St Johns/Grand Canyon","S1431","001127","ST JOHNS","GRAND CANYON","AUSTIN",78752,"","Bus Stop","Nearside","Southwest","Active",30.32813,-97.69448,"Capital Metro","2017-08-17",3,2,"3-2"
"479",1310,"1411 Coronado Hills/Cameron","S1434","001411","CORONADO HILLS","CAMERON","AUSTIN",78752,"","Bus Stop","Mid-Block","Southeast","Active",30.32865138,-97.68981848,"Capital Metro","2017-08-17",3,2,"3-2"
"480",1311,"1501 Coronado Hills/Cameron","S1436","001501","CORONADO HILLS","CAMERON","AUSTIN",78752,"","Bus Stop","Mid-Block","Southeast","Active",30.32718731,-97.68843303,"Capital Metro","2017-08-17",3,2,"3-2"
"481",1312,"7220 Berkman/Reagan Hill","S1438","007220","BERKMAN","REAGAN HILL","AUSTIN",78752,"","Bus Stop","Mid-Block","Southwest","Active",30.32543743,-97.68887701,"Capital Metro","2017-08-17",3,2,"3-2"
"482",1313,"Berkman/US 290 NW Corner","S1402","007000","BERKMAN","US 290","AUSTIN",78752,"","Bus Stop","Nearside","Northwest","Active",30.3223,-97.68924,"Capital Metro","2017-08-17",3,2,"3-2"
"483",1316,"6208 Berkman/Glen Valley","S1443","006208","BERKMAN","GLEN VALLEY","AUSTIN",78723,"","Bus Stop","Nearside","Northwest","Active",30.31645119,-97.69122274,"Capital Metro","2017-08-17",3,2,"3-2"
"484",1318,"5810 Berkman/Sweetbriar","S1446","005810","BERKMAN","SWEETBRIAR","AUSTIN",78723,"","Bus Stop","Farside","Southwest","Active",30.31231097,-97.69366567,"Capital Metro","2017-08-17",3,2,"3-2"
"485",1319,"Berkman/Cloverleaf","S1447","005600","BERKMAN","CLOVERLEAF","AUSTIN",78723,"","Bus Stop","Nearside","Northwest","Active",30.30934162,-97.69553885,"Capital Metro","2017-08-17",3,2,"3-2"
"486",1321,"1907 Rogge/Ridgemont","S1450","001907","ROGGE","RIDGEMONT","AUSTIN",78723,"","Bus Stop","Nearside","Southwest","Active",30.30704975,-97.69292762,"Capital Metro","2017-08-17",3,2,"3-2"
"487",1322,"1935 Rogge/Westminster","S1452","001935","ROGGE","WESTMINSTER","AUSTIN",78723,"","Bus Stop","Nearside","Southwest","Active",30.30773304,-97.69016413,"Capital Metro","2017-08-17",3,2,"3-2"
"488",1324,"2801 Rogge/Manor","348SB","002801","ROGGE","MANOR","AUSTIN",78723,"","Bus Stop","Nearside","Southwest","Active",30.30465997,-97.68171618,"Capital Metro","2017-08-17",3,2,"3-2"
"489",1325,"3109 Rogge/Reicher","S1458","003109","ROGGE","REICHER","AUSTIN",78723,"","Bus Stop","Farside","Southeast","Active",30.30265497,-97.67754776,"Capital Metro","2017-08-17",3,3,"3-3"
"490",1326,"3505 Rogge/Springdale","S1459","003505","ROGGE","SPRINGDALE","AUSTIN",78723,"","Bus Stop","Nearside","Southwest","Active",30.30074386,-97.67357587,"Capital Metro","2017-08-17",3,3,"3-3"
"491",1327,"Springdale/Chadwyck","S1460","005400","SPRINGDALE","CHADWYCK","AUSTIN",78723,"","Bus Stop","Mid-Block","Southwest","Active",30.29851582,-97.67465949,"Capital Metro","2017-08-17",3,3,"3-3"
"492",1328,"5322 Springdale/Norwood Hill","S1462","005322","SPRINGDALE","NORWOOD HILL","AUSTIN",78723,"","Bus Stop","Farside","Southwest","Active",30.29698443,-97.67577337,"Capital Metro","2017-08-17",3,3,"3-3"
"493",1329,"5100 Springdale/51st","S1464","005100","SPRINGDALE","51ST","AUSTIN",78723,"","Bus Stop","Nearside","Northwest","Active",30.29387062,-97.67774421,"Capital Metro","2017-08-17",3,3,"3-3"
"494",1330,"4612 Springdale/Touchstone","S1397","004612","SPRINGDALE","TOUCHSTONE","AUSTIN",78723,"","Bus Stop","Nearside","Northwest","Active",30.2896029,-97.68029616,"Capital Metro","2017-08-17",3,2,"3-2"
"495",1331,"4300 Springdale/Martin Luther","388SB","004300","SPRINGDALE","MARTIN LUTHER KING","AUSTIN",78723,"","Bus Stop","Nearside","Northwest","Active",30.28613381,-97.68260842,"Capital Metro","2017-08-17",3,2,"3-2"
"496",1332,"Springdale/Oak Cliff","S1470","001800","SPRINGDALE","OAK CLIFF","AUSTIN",78721,"","Bus Stop","Nearside","Northwest","Active",30.28500595,-97.6832814,"Capital Metro","2017-08-17",3,2,"3-2"
"497",1333,"Springdale/Kitty","S1472","001600","SPRINGDALE","KITTY","AUSTIN",78721,"","Bus Stop","Farside","Southwest","Active",30.28313148,-97.68451619,"Capital Metro","2017-08-17",3,2,"3-2"
"498",1334,"Springdale/Glomar","S1474","001412","SPRINGDALE","GLOMAR","AUSTIN",78721,"","Bus Stop","Nearside","Northwest","Active",30.28187937,-97.68530505,"Capital Metro","2017-08-17",3,2,"3-2"
"499",1335,"1200 Springdale/12th","S1476","001200","SPRINGDALE","12TH","AUSTIN",78721,"","Bus Stop","Nearside","Northwest","Active",30.27923356,-97.68696468,"Capital Metro","2017-08-17",3,2,"3-2"
"500",1336,"1150 Springdale/Webberville","S1478","001150","SPRINGDALE","WEBBERVILLE","AUSTIN",78721,"","Bus Stop","Nearside","Northwest","Active",30.27673521,-97.68848921,"Capital Metro","2017-08-17",3,2,"3-2"
"501",1337,"1106 Springdale/Ledesma","S1391","001106","SPRINGDALE","LEDESMA","AUSTIN",78721,"","Bus Stop","Nearside","Northwest","Active",30.27430333,-97.69009046,"Capital Metro","2017-08-17",3,2,"3-2"
"502",1338,"1050 Springdale/Prock","S1916","001050","SPRINGDALE","PROCK","AUSTIN",78721,"","Bus Stop","Nearside","Northwest","Active",30.27090113,-97.69222474,"Capital Metro","2017-08-17",3,2,"3-2"
"503",1339,"1018 Springdale/Goodwin","S1393","001018","SPRINGDALE","GOODWIN","AUSTIN",78721,"","Bus Stop","Nearside","Northwest","Active",30.26757906,-97.69434927,"Capital Metro","2017-08-17",3,2,"3-2"
"504",1340,"1006 Springdale/Airport","386SB","001006","SPRINGDALE","AIRPORT","AUSTIN",78721,"","Bus Stop","Nearside","Northwest","Active",30.26613626,-97.69527626,"Capital Metro","2017-08-17",3,2,"3-2"
"505",1341,"3600 Govalle/Gunter","S1485","003600","GOVALLE","GUNTER","AUSTIN",78702,"","Bus Stop","Nearside","Northeast","Active",30.26482855,-97.69866369,"Capital Metro","2017-08-17",3,2,"3-2"
"506",1342,"3200 Govalle/Tillery","S1487","003200","GOVALLE","TILLERY","AUSTIN",78702,"","Bus Stop","Nearside","Northeast","Active",30.26602,-97.70202,"Capital Metro","2017-08-17",3,2,"3-2"
